,id_mutation,date_mutation,numero_disposition,nature_mutation,valeur_fonciere,adresse_numero,adresse_suffixe,adresse_nom_voie,adresse_code_voie,code_postal,code_commune,nom_commune,code_departement,ancien_code_commune,ancien_nom_commune,id_parcelle,ancien_id_parcelle,numero_volume,lot1_numero,lot1_surface_carrez,lot2_numero,lot2_surface_carrez,lot3_numero,lot3_surface_carrez,lot4_numero,lot4_surface_carrez,lot5_numero,lot5_surface_carrez,nombre_lots,code_type_local,type_local,surface_reelle_bati,nombre_pieces_principales,code_nature_culture,nature_culture,code_nature_culture_speciale,nature_culture_speciale,surface_terrain,longitude,latitude
0,2020-1426101,2020-01-10,1,Vente,680000.0,10.0,,RUE DU BOURG L ABBE,1200,75003.0,75103,Paris 3e Arrondissement,75,,,75103000AV0006,,,9,50.74,,,,,,,,,1,2.0,Appartement,51.0,2.0,,,,,,2.351965,48.864157
1,2020-1426103,2020-01-08,1,Vente,6000.0,7.0,,AV FRANKLIN D ROOSEVELT,3824,75008.0,75108,Paris 8e Arrondissement,75,,,75108000AL0013,,,29,,,,,,,,,,1,2.0,Appartement,79.0,3.0,,,,,,2.309698,48.865741
2,2020-1426104,2020-01-03,1,Vente,2350000.0,83.0,,RUE DE MONCEAU,6419,75008.0,75108,Paris 8e Arrondissement,75,,,75108000CG0026,,,53,,,,,,,,,,1,2.0,Appartement,174.0,5.0,,,,,,2.315064,48.880175
3,2020-1426108,2020-01-07,1,Vente,7000.0,6.0,,RUE DES HAUDRIETTES,4483,75003.0,75103,Paris 3e Arrondissement,75,,,75103000AR0005,,,785,,,,,,,,,,1,2.0,Appartement,41.0,1.0,,,,,,2.357892,48.86205
4,2020-1426113,2020-01-09,1,Vente,829300.0,266.0,,RUE DU FAUBOURG SAINT HONORE,3518,75008.0,75108,Paris 8e Arrondissement,75,,,75108000AY0011,,,66,,,,,,,,,,1,2.0,Appartement,75.0,3.0,,,,,,2.299505,48.877705
5,2020-1426115,2020-01-16,1,Vente,435000.0,13.0,,BD DU TEMPLE,9190,75003.0,75103,Paris 3e Arrondissement,75,,,75103000AJ0005,,,7,55.69,,,,,,,,,1,2.0,Appartement,72.0,2.0,,,,,,2.365697,48.863902
6,2020-1426117,2020-01-06,1,Vente,30000.0,7.0,,RUE CHARLOT,1880,75003.0,75103,Paris 3e Arrondissement,75,,,75103000AQ0016,,,64,,,,,,,,,,1,2.0,Appartement,20.0,1.0,,,,,,2.360101,48.861319
7,2020-1426120,2020-01-06,1,Vente,106574.1,67.0,,RUE DE BRETAGNE,1275,75003.0,75103,Paris 3e Arrondissement,75,,,75103000AI0005,,,35,26.43,,,,,,,,,1,2.0,Appartement,11.0,1.0,,,,,,2.359834,48.864253
8,2020-1426127,2020-01-06,1,Vente,544000.0,35.0,,RUE COQUILLIERE,2318,75001.0,75101,Paris 1er Arrondissement,75,,,75101000AR0042,,,14,,,,,,,,,,1,2.0,Appartement,52.0,2.0,,,,,,2.341036,48.864313
9,2020-1426129,2020-01-08,1,Vente,490000.0,117.0,,RUE SAINT HONORE,8635,75001.0,75101,Paris 1er Arrondissement,75,,,75101000AT0169,,,412,,,,,,,,,,1,2.0,Appartement,42.0,2.0,,,,,,2.341817,48.861395
10,2020-1426130,2020-01-10,1,Vente,505000.0,62.0,,RUE DE L ARBRE SEC,0407,75001.0,75101,Paris 1er Arrondissement,75,,,75101000AT0116,,,3,41.19,,,,,,,,,1,2.0,Appartement,40.0,1.0,,,,,,2.342711,48.861214
11,2020-1426132,2020-01-10,1,Vente,30000.0,40.0,,RUE DE LIEGE,5665,75008.0,75108,Paris 8e Arrondissement,75,,,75108000BZ0065,,,351,4.3,,,,,,,,,1,2.0,Appartement,6.0,1.0,,,,,,2.324251,48.87945
12,2020-1426135,2020-01-17,1,Vente,1125000.0,70.0,,RUE DE ROME,8339,75008.0,75108,Paris 8e Arrondissement,75,,,75108000CE0014,,,14,83.05,,,,,,,,,1,2.0,Appartement,85.0,5.0,,,,,,2.321628,48.880605
13,2020-1426136,2020-01-16,1,Vente,380000.0,24.0,,RUE DE POITOU,7572,75003.0,75103,Paris 3e Arrondissement,75,,,75103000AK0087,,,24,,,,,,,,,,1,2.0,Appartement,6.0,1.0,,,,,,2.362896,48.861768
14,2020-1426137,2020-01-10,1,Vente,2800000.0,8.0,,AV MONTAIGNE,6450,75008.0,75108,Paris 8e Arrondissement,75,,,75108000AK0045,,,361,98.53,,,,,,,,,1,2.0,Appartement,12.0,1.0,,,,,,2.304497,48.865627
15,2020-1426138,2020-01-06,1,Vente,368000.0,7.0,,RUE NOTRE DAME DE NAZARETH,6834,75003.0,75103,Paris 3e Arrondissement,75,,,75103000AF0099,,,32,27.37,,,,,,,,,1,2.0,Appartement,26.0,2.0,,,,,,2.360903,48.866846
16,2020-1426144,2020-01-15,1,Vente,445000.0,45.0,,RUE DE SAINTONGE,8716,75003.0,75103,Paris 3e Arrondissement,75,,,75103000AH0057,,,29,25.9,,,,,,,,,1,2.0,Appartement,24.0,2.0,,,,,,2.363715,48.863144
17,2020-1426150,2020-01-06,1,Vente,105000.0,41.0,,RUE BEAUBOURG,0759,75003.0,75103,Paris 3e Arrondissement,75,,,75103000AU0071,,,185,,,,,,,,,,1,2.0,Appartement,9.0,1.0,,,,,,2.353726,48.862341
18,2020-1426151,2020-01-15,1,Vente,490000.0,15.0,,RUE DE LA GRANDE TRUANDERIE,4278,75001.0,75101,Paris 1er Arrondissement,75,,,75101000AQ0148,,,14,,,,,,,,,,1,2.0,Appartement,41.0,2.0,,,,,,2.348873,48.862639
19,2020-1426153,2020-01-22,1,Vente,108400.0,149.0,,RUE DU TEMPLE,9191,75003.0,75103,Paris 3e Arrondissement,75,,,75103000AE0177,,,4,7.65,,,,,,,,,1,2.0,Appartement,13.0,1.0,,,,,,2.358696,48.864041
20,2020-1426155,2020-01-23,1,Vente,338000.0,47.0,,RUE NOTRE DAME DE NAZARETH,6834,75003.0,75103,Paris 3e Arrondissement,75,,,75103000AB0082,,,14,,,,,,,,,,1,2.0,Appartement,24.0,1.0,,,,,,2.357042,48.867472
21,2020-1426157,2020-01-08,1,Vente,338000.0,152.0,,BD HAUSSMANN,4485,75008.0,75108,Paris 8e Arrondissement,75,,,75108000CL0065,,,164,,,,,,,,,,1,2.0,Appartement,32.0,1.0,,,,,,2.311643,48.87549
22,2020-1426158,2020-01-08,2,Vente,1.0,66.0,,RUE DE TURENNE,9506,75003.0,75103,Paris 3e Arrondissement,75,,,75103000AM0103,,,77,,,,,,,,,,1,2.0,Appartement,12.0,1.0,,,,,,2.36527,48.859587
23,2020-1426169,2020-01-10,1,Vente,1400000.0,3.0,,RUE DE CASTELLANE,1599,75008.0,75108,Paris 8e Arrondissement,75,,,75108000BS0120,,,9,100.83,,,,,,,,,1,2.0,Appartement,107.0,3.0,,,,,,2.325331,48.872061
24,2020-1426172,2020-01-14,1,Vente,550000.0,3.0,,RUE DE MIROMESNIL,6387,75008.0,75108,Paris 8e Arrondissement,75,,,75108000BK0051,,,18,44.03,,,,,,,,,1,2.0,Appartement,54.0,2.0,,,,,,2.315845,48.871523
25,2020-1426175,2020-01-28,1,Vente,416300.0,48.0,,RUE DE SAINTONGE,8716,75003.0,75103,Paris 3e Arrondissement,75,,,75103000AJ0049,,,16,,,,,,,,,,1,2.0,Appartement,31.0,2.0,,,,,,2.364038,48.862903
26,2020-1426176,2020-01-23,1,Vente,1787900.0,25.0,,RUE DE MADRID,5897,75008.0,75108,Paris 8e Arrondissement,75,,,75108000BX0094,,,62,,,,,,,,,,1,2.0,Appartement,19.0,1.0,,,,,,2.318922,48.877798
27,2020-1426177,2020-01-20,1,Vente,950000.0,76.0,,AV DES CHAMPS ELYSEES,1733,75008.0,75108,Paris 8e Arrondissement,75,,,75108000BG0009,,,210,,,,,,,,,,1,2.0,Appartement,36.0,1.0,,,,,,2.304678,48.871669
28,2020-1426184,2020-01-17,1,Vente,839990.0,50.0,,RUE DU GENERAL FOY,4041,75008.0,75108,Paris 8e Arrondissement,75,,,75108000CG0074,,,10,65.72,,,,,,,,,1,2.0,Appartement,65.0,2.0,,,,,,2.31695,48.880345
29,2020-1426186,2020-01-30,1,Vente,180900.0,21.0,,RUE DE MOSCOU,6573,75008.0,75108,Paris 8e Arrondissement,75,,,75108000CE0085,,,35,,,,,,,,,,1,2.0,Appartement,22.0,1.0,,,,,,2.323794,48.880902
30,2020-1426190,2020-01-17,1,Vente,550000.0,7.0,,RUE JEAN GOUJON,4897,75008.0,75108,Paris 8e Arrondissement,75,,,75108000AL0018,,,114,38.05,,,,,,,,,1,2.0,Appartement,42.0,1.0,,,,,,2.30927,48.866362
31,2020-1426195,2020-01-23,1,Vente,450000.0,15.0,,RUE MESLAY,6286,75003.0,75103,Paris 3e Arrondissement,75,,,75103000AF0051,,,11,35.25,,,,,,,,,1,2.0,Appartement,39.0,1.0,,,,,,2.360769,48.867438
32,2020-1426196,2020-01-20,1,Vente,703332.0,19.0,,RUE JEAN JACQUES ROUSSEAU,4901,75001.0,75101,Paris 1er Arrondissement,75,,,75101000AS0007,,,123,,,,,,,,,,1,2.0,Appartement,63.0,3.0,,,,,,2.340375,48.862867
33,2020-1426204,2020-01-17,1,Vente,490566.0,37.0,,BD DE SEBASTOPOL,8894,75001.0,75101,Paris 1er Arrondissement,75,,,75101000AP0064,,,31,40.18,,,,,,,,,1,2.0,Appartement,39.0,2.0,,,,,,2.349051,48.860996
34,2020-1426205,2020-01-21,1,Vente,369000.0,155.0,,RUE DU FAUBOURG SAINT HONORE,3518,75008.0,75108,Paris 8e Arrondissement,75,,,75108000BD0012,,,137,31.8,,,,,,,,,1,2.0,Appartement,31.0,1.0,,,,,,2.306669,48.874195
35,2020-1426212,2020-01-31,1,Vente,543100.0,39.0,,RUE NOTRE DAME DE NAZARETH,6834,75003.0,75103,Paris 3e Arrondissement,75,,,75103000AB0075,,,11,49.28,,,,,,,,,1,2.0,Appartement,49.0,3.0,,,,,,2.357807,48.867386
36,2020-1426218,2020-01-15,1,Vente,1358825.0,4.0,,RUE DE TURIN,9510,75008.0,75108,Paris 8e Arrondissement,75,,,75108000BZ0038,,,4,,,,,,,,,,1,2.0,Appartement,94.0,4.0,,,,,,2.325624,48.879703
37,2020-1426221,2020-01-30,1,Vente,895840.0,21.0,,RUE DE NAPLES,6675,75008.0,75108,Paris 8e Arrondissement,75,,,75108000CF0079,,,3,77.19,,,,,,,,,1,2.0,Appartement,68.0,5.0,,,,,,2.319351,48.879551
38,2020-1426224,2020-02-05,1,Vente,179000.0,17.0,,RUE DE CASTELLANE,1599,75008.0,75108,Paris 8e Arrondissement,75,,,75108000BS0126,,,106,16.54,,,,,,,,,1,2.0,Appartement,17.0,1.0,,,,,,2.324389,48.87235
39,2020-1426226,2020-01-31,1,Vente,418000.0,10.0,,RUE COQUILLIERE,2318,75001.0,75101,Paris 1er Arrondissement,75,,,75101000AR0094,,,111,37.51,,,,,,,,,1,2.0,Appartement,37.0,2.0,,,,,,2.343699,48.863762
40,2020-1426231,2020-01-31,1,Vente,375000.0,35.0,,RUE DE BERNE,0900,75008.0,75108,Paris 8e Arrondissement,75,,,75108000CE0039,,,30,30.07,,,,,,,,,1,2.0,Appartement,30.0,1.0,,,,,,2.322162,48.881736
41,2020-1426238,2020-01-16,1,Vente,390000.0,23.0,,RUE DU ROCHER,8291,75008.0,75108,Paris 8e Arrondissement,75,,,75108000BW0021,,,18,,,,,,,,,,1,2.0,Appartement,50.0,2.0,,,,,,2.321856,48.876469
42,2020-1426239,2020-01-20,1,Vente,29000.0,94.0,,RUE DE MIROMESNIL,6387,75008.0,75108,Paris 8e Arrondissement,75,,,75108000CG0088,,,22,,,,,,,,,,1,2.0,Appartement,175.0,6.0,,,,,,2.315751,48.879409
43,2020-1426241,2020-01-16,1,Vente,536000.0,83.0,,RUE VIEILLE DU TEMPLE,9783,75003.0,75103,Paris 3e Arrondissement,75,,,75103000AP0035,,,22,40.44,,,,,,,,,1,2.0,Appartement,35.0,2.0,,,,,,2.359334,48.859371
44,2020-1426243,2020-01-24,1,Vente,1100000.0,27.0,,RUE JEAN MERMOZ,4921,75008.0,75108,Paris 8e Arrondissement,75,,,75108000BI0063,,,14,91.85,,,,,,,,,1,2.0,Appartement,90.0,4.0,,,,,,2.31223,48.872022
45,2020-1426247,2020-01-30,1,Vente,632000.0,10.0,,RUE DE LA GRANDE TRUANDERIE,4278,75001.0,75101,Paris 1er Arrondissement,75,,,75101000AQ0089,,,22,50.6,,,,,,,,,1,2.0,Appartement,103.0,3.0,,,,,,2.349255,48.862885
46,2020-1426248,2020-02-06,1,Vente,400000.0,3.0,,RUE VOLTA,9905,75003.0,75103,Paris 3e Arrondissement,75,,,75103000AE0145,,,7,43.26,,,,,,,,,1,2.0,Appartement,42.0,2.0,,,,,,2.356771,48.864733
47,2020-1426250,2020-01-15,1,Vente,2290000.0,8.0,,RUE DES FRANCS BOURGEOIS,3820,75003.0,75103,Paris 3e Arrondissement,75,,,75103000AN0012,,,30,,,,,,,,,,1,2.0,Appartement,37.0,1.0,,,,,,2.36355,48.856826
48,2020-1426252,2020-02-03,1,Vente,160000.0,83.0,,RUE SAINT HONORE,8635,75001.0,75101,Paris 1er Arrondissement,75,,,75101000AT0091,,,33,18.22,,,,,,,,,1,2.0,Appartement,19.0,1.0,,,,,,2.343624,48.86097
49,2020-1426254,2020-01-29,1,Vente,835000.0,4.0,,RUE LINCOLN,5692,75008.0,75108,Paris 8e Arrondissement,75,,,75108000AR0020,,,3,,,,,,,,,,1,2.0,Appartement,57.0,3.0,,,,,,2.302696,48.869752
50,2020-1426255,2020-01-20,1,Vente,342666.0,48.0,,RUE CHAPON,1771,75003.0,75103,Paris 3e Arrondissement,75,,,75103000AV0048,,,42,30.21,,,,,,,,,1,2.0,Appartement,34.0,2.0,,,,,,2.354228,48.864165
51,2020-1426258,2020-01-23,1,Vente,215000.0,1.0,B,RUE JEAN MERMOZ,4921,75008.0,75108,Paris 8e Arrondissement,75,,,75108000BH0046,,,104,22.1,,,,,,,,,1,2.0,Appartement,24.0,1.0,,,,,,2.310473,48.870036
52,2020-1426259,2020-01-16,1,Vente,5000.0,83.0,,RUE VIEILLE DU TEMPLE,9783,75003.0,75103,Paris 3e Arrondissement,75,,,75103000AP0035,,,43,,,,,,,,,,1,2.0,Appartement,35.0,2.0,,,,,,2.359334,48.859371
53,2020-1426265,2020-02-07,1,Vente,1110000.0,19.0,,RUE DE BERRI,0904,75008.0,75108,Paris 8e Arrondissement,75,,,75108000BF0019,,,60,110.15,,,,,,,,,1,2.0,Appartement,111.0,5.0,,,,,,2.304455,48.872855
54,2020-1426271,2020-01-30,1,Vente,100000.0,2.0,,CITE NOEL,6792,75003.0,75103,Paris 3e Arrondissement,75,,,75103000AT0020,,,21,16.1,,,,,,,,,1,2.0,Appartement,16.0,1.0,,,,,,2.354703,48.861211
55,2020-1426274,2020-01-13,2,Vente,,194.0,B,RUE DE RIVOLI,8249,75001.0,75101,Paris 1er Arrondissement,75,,,75101000AY0088,,,21,197.92,,,,,,,,,1,2.0,Appartement,225.0,6.0,,,,,,2.331291,48.864213
56,2020-1426275,2020-02-03,1,Vente,1150000.0,11.0,B,RUE DE SURENE,9129,75008.0,75108,Paris 8e Arrondissement,75,,,75108000BN0013,,,6,112.83,,,,,,,,,1,2.0,Appartement,25.0,1.0,,,,,,2.320908,48.870728
57,2020-1426278,2020-02-04,1,Vente,200000.0,7.0,,RUE REAUMUR,8073,75003.0,75103,Paris 3e Arrondissement,75,,,75103000AE0051,,,9,14.19,,,,,,,,,1,2.0,Appartement,8.0,1.0,,,,,,2.358722,48.864574
58,2020-1426280,2020-02-04,1,Vente,277000.0,154.0,,RUE DU TEMPLE,9191,75003.0,75103,Paris 3e Arrondissement,75,,,75103000AI0003,,,13,,,,,,,,,,1,2.0,Appartement,28.0,2.0,,,,,,2.359516,48.864397
59,2020-1426282,2020-01-22,1,Vente,1515410.0,8.0,,AV DE FRIEDLAND,3868,75008.0,75108,Paris 8e Arrondissement,75,,,75108000AW0020,,,5,126.14,,,,,,,,,1,2.0,Appartement,140.0,5.0,,,,,,2.303812,48.874973
60,2020-1426283,2020-02-05,1,Vente,495000.0,5.0,,RUE SAINTE APOLLINE,8538,75003.0,75103,Paris 3e Arrondissement,75,,,75103000AB0131,,,26,43.27,,,,,,,,,1,2.0,Appartement,44.0,2.0,,,,,,2.354872,48.868658
61,2020-1426290,2020-01-28,1,Vente,2607500.0,6.0,,RUE ST PHILIPPE DU ROULE,8728,75008.0,75108,Paris 8e Arrondissement,75,,,75108000BE0013,,,106,201.48,,,,,,,,,1,2.0,Appartement,200.0,7.0,,,,,,2.308209,48.873089
62,2020-1426291,2020-01-22,1,Vente,170000.0,19.0,,RUE BERANGER,0871,75003.0,75103,Paris 3e Arrondissement,75,,,75103000AG0089,,,44,13.3,,,,,,,,,1,2.0,Appartement,13.0,1.0,,,,,,2.362866,48.866045
63,2020-1426293,2020-02-04,1,Vente,5900000.0,36.0,,RUE DE MONTPENSIER,6528,75001.0,75101,Paris 1er Arrondissement,75,,,75101000AV0027,,,8,154.7,,,,,,,,,1,2.0,Appartement,152.0,3.0,,,,,,2.337539,48.865909
64,2020-1426297,2020-02-04,1,Vente,270000.0,3.0,,RUE QUENTIN BAUCHART,7954,75008.0,75108,Paris 8e Arrondissement,75,,,75108000AP0005,,,11,35.85,,,,,,,,,1,2.0,Appartement,40.0,2.0,,,,,,2.299249,48.869074
65,2020-1426306,2020-02-05,1,Vente,1.0,108.0,,RUE VIEILLE DU TEMPLE,9783,75003.0,75103,Paris 3e Arrondissement,75,,,75103000AL0017,,,83,,,,,,,,,,1,2.0,Appartement,120.0,5.0,,,,,,2.36306,48.86078
66,2020-1426307,2020-01-24,1,Vente,598500.0,12.0,,RUE D ALGER,0191,75001.0,75101,Paris 1er Arrondissement,75,,,75101000AY0037,,,36,,,,,,,,,,1,2.0,Appartement,22.0,1.0,,,,,,2.330067,48.86532
67,2020-1426308,2020-02-04,1,Vente,774350.0,314.0,,RUE SAINT MARTIN,8694,75003.0,75103,Paris 3e Arrondissement,75,,,75103000AB0147,,,210,67.9,,,,,,,,,1,2.0,Appartement,67.0,3.0,,,,,,2.355635,48.867972
68,2020-1426311,2020-01-20,1,Vente,200000.0,42.0,,AV DE WAGRAM,9933,75008.0,75108,Paris 8e Arrondissement,75,,,75108000AX0015,,,130,6.2,,,,,,,,,1,2.0,Appartement,7.0,1.0,,,,,,2.298073,48.87711
69,2020-1426312,2020-02-12,1,Vente,10400.0,33.0,,BD DE COURCELLES,2386,75008.0,75108,Paris 8e Arrondissement,75,,,75108000CG0001,,,152,,,,,,,,,,1,2.0,Appartement,132.0,4.0,,,,,,2.312113,48.8804
70,2020-1426314,2020-02-07,1,Vente,325000.0,39.0,,RUE DE SAINT PETERSBOURG,8724,75008.0,75108,Paris 8e Arrondissement,75,,,75108000CD0052,,,6,37.38,,,,,,,,,1,2.0,Appartement,33.0,2.0,,,,,,2.32606,48.882715
71,2020-1426319,2020-01-29,1,Vente,415000.0,11.0,,RUE DE PICARDIE,7395,75003.0,75103,Paris 3e Arrondissement,75,,,75103000AH0089,,,15,31.04,,,,,,,,,1,2.0,Appartement,33.0,2.0,,,,,,2.362264,48.863546
72,2020-1426342,2020-02-14,1,Vente,153000.0,14.0,,RUE BARBETTE,0666,75003.0,75103,Paris 3e Arrondissement,75,,,75103000AP0028,,,8,17.87,,,,,,,,,1,2.0,Appartement,15.0,1.0,,,,,,2.36061,48.859121
73,2020-1426345,2020-01-31,1,Vente,380000.0,20.0,,RUE DU LOUVRE,5825,75001.0,75101,Paris 1er Arrondissement,75,,,75101000AT0168,,,15,28.43,,,,,,,,,1,2.0,Appartement,33.0,1.0,,,,,,2.341374,48.861483
74,2020-1426346,2020-02-03,1,Vente,367000.0,22.0,,RUE DU VERTBOIS,9711,75003.0,75103,Paris 3e Arrondissement,75,,,75103000AF0078,,,9,29.91,,,,,,,,,1,2.0,Appartement,29.0,1.0,,,,,,2.358891,48.866962
75,2020-1426350,2020-02-17,1,Vente,358000.0,19.0,,RUE CHATEAUBRIAND,1914,75008.0,75108,Paris 8e Arrondissement,75,,,75108000AU0023,,,29,20.34,,,,,,,,,1,2.0,Appartement,18.0,1.0,,,,,,2.300759,48.873411
76,2020-1426352,2020-02-21,1,Vente,625000.0,119.0,,RUE SAINT DENIS,8525,75001.0,75101,Paris 1er Arrondissement,75,,,75101000AQ0095,,,31,,,,,,,,,,1,2.0,Appartement,52.0,3.0,,,,,,2.349162,48.863042
77,2020-1426353,2020-02-06,1,Vente,450000.0,10.0,,AV DE MESSINE,6296,75008.0,75108,Paris 8e Arrondissement,75,,,75108000CI0101,,,175,35.04,,,,,,,,,1,2.0,Appartement,35.0,2.0,,,,,,2.31455,48.876075
78,2020-1426356,2020-02-14,1,Vente,670000.0,34.0,,RUE DE RICHELIEU,8212,75001.0,75101,Paris 1er Arrondissement,75,,,75101000AV0052,,,11,48.01,,,,,,,,,1,2.0,Appartement,62.0,2.0,,,,,,2.337007,48.865564
79,2020-1426359,2020-01-30,1,Vente,132000.0,73.0,,RUE CHARLOT,1880,75003.0,75103,Paris 3e Arrondissement,75,,,75103000AH0020,,,39,10.02,,,,,,,,,1,2.0,Appartement,9.0,1.0,,,,,,2.363746,48.864248
80,2020-1426360,2020-02-21,1,Vente,7500.0,53.0,,RUE FRANCOIS 1ER,3814,75008.0,75108,Paris 8e Arrondissement,75,,,75108000AP0020,,,228,,,,,,,,,,1,2.0,Appartement,58.0,2.0,,,,,,2.301629,48.869515
81,2020-1426363,2020-02-03,1,Vente,391588.0,193.0,,RUE SAINT HONORE,8635,75001.0,75101,Paris 1er Arrondissement,75,,,75101000AX0003,,,3,,,,,,,,,,1,2.0,Appartement,36.0,2.0,,,,,,2.33208,48.864664
82,2020-1426366,2020-02-05,1,Vente,8000.0,52.0,,RUE DU FAUBOURG SAINT HONORE,3518,75008.0,75108,Paris 8e Arrondissement,75,,,75108000BN0029,,,56,,,,,,,,,,1,2.0,Appartement,38.0,1.0,,,,,,2.320183,48.869787
83,2020-1426367,2020-02-05,1,Vente,3664045.0,10.0,,RUE DE SAINTONGE,8716,75003.0,75103,Paris 3e Arrondissement,75,,,75103000AQ0071,,,57,,,,,,,,,,1,2.0,Appartement,25.0,1.0,,,,,,2.362501,48.861348
84,2020-1426370,2020-02-06,1,Vente,375000.0,66.0,,RUE NOTRE DAME DE NAZARETH,6834,75003.0,75103,Paris 3e Arrondissement,75,,,75103000AB0057,,,37,25.23,,,,,,,,,1,2.0,Appartement,28.0,2.0,,,,,,2.35657,48.86793
85,2020-1426373,2020-02-13,1,Vente,520000.0,8.0,,RUE REAUMUR,8073,75003.0,75103,Paris 3e Arrondissement,75,,,75103000AE0025,,,8,39.06,,,,,,,,,1,2.0,Appartement,38.0,2.0,,,,,,2.359174,48.865117
86,2020-1426377,2020-02-07,1,Vente,535000.0,76.0,,RUE QUINCAMPOIX,7970,75003.0,75103,Paris 3e Arrondissement,75,,,75103000AU0047,,,22,38.11,,,,,,,,,1,2.0,Appartement,40.0,1.0,,,,,,2.35117,48.862068
87,2020-1426385,2020-02-25,1,Vente,1250000.0,20.0,,RUE DE MIROMESNIL,6387,75008.0,75108,Paris 8e Arrondissement,75,,,75108000BM0006,,,6,,,,,,,,,,1,2.0,Appartement,125.0,4.0,,,,,,2.316255,48.872678
88,2020-1426394,2020-02-03,1,Vente,1500000.0,11.0,,RUE DES ARQUEBUSIERS,0465,75003.0,75103,Paris 3e Arrondissement,75,,,75103000AM0062,,,47,97.36,,,,,,,,,1,2.0,Appartement,60.0,4.0,,,,,,2.366233,48.859516
89,2020-1426397,2020-02-06,1,Vente,1604000.0,48.0,,RUE DU ROCHER,8291,75008.0,75108,Paris 8e Arrondissement,75,,,75108000BX0062,,,79,126.74,,,,,,,,,1,2.0,Appartement,150.0,6.0,,,,,,2.320676,48.877992
90,2020-1426400,2020-02-06,1,Vente,15000.0,32.0,,RUE MESLAY,6286,75003.0,75103,Paris 3e Arrondissement,75,,,75103000AF0002,,,46,,,,,,,,,,1,2.0,Appartement,17.0,1.0,,,,,,2.359149,48.868113
91,2020-1426401,2020-01-31,1,Vente,210000.0,170.0,,RUE DU TEMPLE,9191,75003.0,75103,Paris 3e Arrondissement,75,,,75103000AG0110,,,115,17.46,,,,,,,,,1,2.0,Appartement,16.0,1.0,,,,,,2.361632,48.865995
92,2020-1426402,2020-02-26,1,Vente,1345000.0,51.0,,RUE DE NAPLES,6675,75008.0,75108,Paris 8e Arrondissement,75,,,75108000CH0045,,,14,95.8,,,,,,,,,1,2.0,Appartement,91.0,5.0,,,,,,2.315948,48.878942
93,2020-1426404,2020-02-17,1,Vente,125000.0,12.0,,RUE DU ROCHER,8291,75008.0,75108,Paris 8e Arrondissement,75,,,75108000BV0014,,,43,11.4,,,,,,,,,1,2.0,Appartement,12.0,1.0,,,,,,2.323092,48.876198
94,2020-1426405,2020-01-09,1,Vente,380000.0,20.0,,RUE DU LOUVRE,5825,75001.0,75101,Paris 1er Arrondissement,75,,,75101000AT0168,,,20,27.83,,,,,,,,,1,2.0,Appartement,35.0,1.0,,,,,,2.341374,48.861483
95,2020-1426407,2020-02-14,1,Vente,318250.0,41.0,,RUE DU COLISEE,2185,75008.0,75108,Paris 8e Arrondissement,75,,,75108000BI0047,,,18,,,,,,,,,,1,2.0,Appartement,20.0,1.0,,,,,,2.311088,48.872088
96,2020-1426414,2020-02-19,1,Vente,246.0,4.0,,RUE BLONDEL,1021,75003.0,75103,Paris 3e Arrondissement,75,,,75103000AB0130,,,18,,,,,,,,,,1,2.0,Appartement,18.0,1.0,,,,,,2.354961,48.868615
97,2020-1426416,2020-02-06,1,Vente,130000.0,8.0,,RUE VOLTA,9905,75003.0,75103,Paris 3e Arrondissement,75,,,75103000AE0134,,,11,10.04,,,,,,,,,1,2.0,Appartement,20.0,1.0,,,,,,2.357103,48.86471
98,2020-1426417,2020-02-18,1,Vente,1034285.0,304.0,,RUE SAINT HONORE,8635,75001.0,75101,Paris 1er Arrondissement,75,,,75101000AY0078,,,9,55.03,,,,,,,,,1,2.0,Appartement,51.0,2.0,,,,,,2.331921,48.86529
99,2020-1426421,2020-02-04,1,Vente,336900.0,86.0,,RUE DES ARCHIVES,0420,75003.0,75103,Paris 3e Arrondissement,75,,,75103000AI0066,,,21,,,,,,,,,,1,2.0,Appartement,10.0,1.0,,,,,,2.36075,48.863106
100,2020-1426422,2020-01-31,1,Vente,900000.0,18.0,,RUE CAFFARELLI,1413,75003.0,75103,Paris 3e Arrondissement,75,,,75103000AH0095,,,4,70.83,,,,,,,,,1,2.0,Appartement,70.0,4.0,,,,,,2.362362,48.863842
101,2020-1426431,2020-02-07,1,Vente,455000.0,230.0,,RUE DU FAUBOURG SAINT HONORE,3518,75008.0,75108,Paris 8e Arrondissement,75,,,75108000BC0036,,,133,34.84,,,,,,,,,1,2.0,Appartement,33.0,1.0,,,,,,2.303375,48.876388
102,2020-1426433,2020-02-13,1,Vente,167000.0,12.0,,RUE CAFFARELLI,1413,75003.0,75103,Paris 3e Arrondissement,75,,,75103000AH0097,,,26,12.53,,,,,,,,,1,2.0,Appartement,15.0,1.0,,,,,,2.362182,48.863657
103,2020-1426436,2020-02-20,1,Vente,37570.0,67.0,,BD BEAUMARCHAIS,0783,75003.0,75103,Paris 3e Arrondissement,75,,,75103000AM0087,,,82,,,,,,,,,,1,2.0,Appartement,58.0,3.0,,,,,,2.367539,48.857841
104,2020-1426437,2020-02-19,1,Vente,614000.0,31.0,,RUE BOISSY D ANGLAS,1081,75008.0,75108,Paris 8e Arrondissement,75,,,75108000BR0046,,,37,37.9,,,,,,,,,1,2.0,Appartement,37.0,2.0,,,,,,2.322095,48.869672
105,2020-1426438,2020-02-03,1,Vente,759700.0,79.0,,RUE NOTRE DAME DE NAZARETH,6834,75003.0,75103,Paris 3e Arrondissement,75,,,75103000AB0107,,,7,67.23,,,,,,,,,1,2.0,Appartement,67.0,4.0,,,,,,2.353976,48.867925
106,2020-1426439,2020-02-28,1,Vente,27000000.0,400.0,,RUE SAINT HONORE,8635,75001.0,75101,Paris 1er Arrondissement,75,,,75101000BC0077,,,8,36.62,,,,,,,,,1,2.0,Appartement,38.0,2.0,,,,,,2.32513,48.868047
107,2020-1426441,2020-02-28,1,Vente,359000.0,34.0,,RUE REAUMUR,8073,75003.0,75103,Paris 3e Arrondissement,75,,,75103000AE0009,,,25,29.03,,,,,,,,,1,2.0,Appartement,30.0,2.0,,,,,,2.357786,48.86546
108,2020-1426446,2020-02-05,1,Vente,126000.0,9.0,,RUE PORTALIS,7628,75008.0,75108,Paris 8e Arrondissement,75,,,75108000BX0086,,,92,15.79,,,,,,,,,1,2.0,Appartement,15.0,1.0,,,,,,2.31921,48.877399
109,2020-1426447,2020-02-03,1,Vente,1685000.0,4.0,,SQ DU ROULE,8398,75008.0,75108,Paris 8e Arrondissement,75,,,75108000AX0113,,,330,,,,,,,,,,1,2.0,Appartement,211.0,6.0,,,,,,2.299629,48.876786
110,2020-1426452,2020-02-27,1,Vente,542000.0,32.0,,RUE MONTORGUEIL,6520,75001.0,75101,Paris 1er Arrondissement,75,,,75101000AQ0047,,,46,42.11,,,,,,,,,1,2.0,Appartement,31.0,3.0,,,,,,2.346753,48.863807
111,2020-1426453,2020-02-28,1,Vente,660000.0,44.0,,RUE BEAUBOURG,0759,75003.0,75103,Paris 3e Arrondissement,75,,,75103000AT0001,,,127,43.21,,,,,,,,,1,2.0,Appartement,43.0,2.0,,,,,,2.354391,48.862325
112,2020-1426457,2020-02-17,1,Vente,429000.0,13.0,,RUE DE LA FERRONNERIE,3621,75001.0,75101,Paris 1er Arrondissement,75,,,75101000AO0073,,,33,31.91,,,,,,,,,1,2.0,Appartement,32.0,1.0,,,,,,2.347516,48.860102
113,2020-1426460,2020-02-03,1,Vente,520000.0,6.0,,RUE DES HAUDRIETTES,4483,75003.0,75103,Paris 3e Arrondissement,75,,,75103000AR0005,,,172,43.23,,,,,,,,,1,2.0,Appartement,41.0,2.0,,,,,,2.357892,48.86205
114,2020-1426462,2020-02-14,1,Vente,1409600.0,19.0,,RUE DE LA TREMOILLE,5388,75008.0,75108,Paris 8e Arrondissement,75,,,75108000AN0030,,,65,81.52,,,,,,,,,1,2.0,Appartement,84.0,3.0,,,,,,2.303941,48.86795
115,2020-1426465,2020-02-25,1,Vente,400000.0,32.0,,RUE DE CONSTANTINOPLE,2289,75008.0,75108,Paris 8e Arrondissement,75,,,75108000CF0020,,,12,36.55,,,,,,,,,1,2.0,Appartement,34.0,2.0,,,,,,2.318215,48.880872
116,2020-1426469,2020-02-17,1,Vente,230000.0,29.0,,BD DE COURCELLES,2386,75008.0,75108,Paris 8e Arrondissement,75,,,75108000CG0013,,,58,18.42,,,,,,,,,1,2.0,Appartement,17.0,1.0,,,,,,2.313691,48.880676
117,2020-1426470,2020-03-03,1,Vente,7750.0,53.0,,RUE FRANCOIS 1ER,3814,75008.0,75108,Paris 8e Arrondissement,75,,,75108000AP0020,,,241,,,,,,,,,,1,2.0,Appartement,77.0,3.0,,,,,,2.301629,48.869515
118,2020-1426474,2020-03-03,1,Vente,1298346.0,43.0,,RUE REAUMUR,8073,75003.0,75103,Paris 3e Arrondissement,75,,,75103000AD0014,,,5,87.37,,,,,,,,,1,2.0,Appartement,86.0,5.0,,,,,,2.353908,48.865784
119,2020-1426482,2020-01-09,1,Vente,1650000.0,4.0,,RUE LA VRILLIERE,5417,75001.0,75101,Paris 1er Arrondissement,75,,,75101000AV0090,,,32,204.9,,,,,,,,,1,2.0,Appartement,205.0,5.0,,,,,,2.340587,48.86539
120,2020-1426484,2020-02-28,1,Vente,458100.0,156.0,,RUE SAINT HONORE,8635,75001.0,75101,Paris 1er Arrondissement,75,,,75101000AS0033,,,11,26.7,,,,,,,,,1,2.0,Appartement,27.0,1.0,,,,,,2.340027,48.862102
121,2020-1426487,2020-02-18,1,Vente,145000.0,106.0,,RUE VIEILLE DU TEMPLE,9783,75003.0,75103,Paris 3e Arrondissement,75,,,75103000AL0016,,,26,7.83,,,,,,,,,1,2.0,Appartement,9.0,1.0,,,,,,2.362709,48.860618
122,2020-1426488,2020-02-25,1,Vente,320000.0,50.0,,RUE DU VERTBOIS,9711,75003.0,75103,Paris 3e Arrondissement,75,,,75103000AB0080,,,25,24.14,,,,,,,,,1,2.0,Appartement,25.0,1.0,,,,,,2.357106,48.867353
123,2020-1426489,2020-02-27,1,Vente,480000.0,5.0,,BD DE SEBASTOPOL,8894,75001.0,75101,Paris 1er Arrondissement,75,,,75101000AN0073,,,8,,,,,,,,,,1,2.0,Appartement,65.0,3.0,,,,,,2.34767,48.858339
124,2020-1426491,2020-02-12,1,Vente,1500000.0,16.0,,RUE DEBELLEYME,2616,75003.0,75103,Paris 3e Arrondissement,75,,,75103000AL0027,,,5,,,,,,,,,,1,2.0,Appartement,130.0,4.0,,,,,,2.363667,48.861176
125,2020-1426493,2020-02-11,1,Vente,540000.0,144.0,,RUE SAINT HONORE,8635,75001.0,75101,Paris 1er Arrondissement,75,,,75101000AS0044,,,3,31.24,,,,,,,,,1,2.0,Appartement,33.0,1.0,,,,,,2.340528,48.861972
126,2020-1426495,2020-02-18,1,Vente,420000.0,10.0,,RUE ROGER VERLOMME,8308,75003.0,75103,Paris 3e Arrondissement,75,,,75103000AN0069,,,33,29.03,,,,,,,,,1,2.0,Appartement,40.0,2.0,,,,,,2.366685,48.856882
127,2020-1426497,2020-02-27,1,Vente,400000.0,50.0,,RUE DE BERRI,0904,75008.0,75108,Paris 8e Arrondissement,75,,,75108000BD0049,,,60,39.0,,,,,,,,,1,2.0,Appartement,37.0,2.0,,,,,,2.308587,48.874673
128,2020-1426499,2020-02-26,1,Vente,95000.0,11.0,,RUE D ARTOIS,0487,75008.0,75108,Paris 8e Arrondissement,75,,,75108000BE0068,,,22,9.81,,,,,,,,,1,2.0,Appartement,12.0,1.0,,,,,,2.3076,48.872765
129,2020-1426500,2020-02-28,1,Vente,5600000.0,34.0,,RUE DE MONTPENSIER,6528,75001.0,75101,Paris 1er Arrondissement,75,,,75101000AV0028,,,2,170.82,,,,,,,,,1,2.0,Appartement,172.0,4.0,,,,,,2.337452,48.865741
130,2020-1426504,2020-02-20,1,Vente,34200.0,15.0,,RUE DE MIROMESNIL,6387,75008.0,75108,Paris 8e Arrondissement,75,,,75108000BK0045,,,13,,,,,,,,,,1,2.0,Appartement,169.0,6.0,,,,,,2.315798,48.87219
131,2020-1426505,2020-02-20,1,Vente,15.0,15.0,,RUE DE MIROMESNIL,6387,75008.0,75108,Paris 8e Arrondissement,75,,,75108000BK0045,,,15,,,,,,,,,,1,2.0,Appartement,135.0,5.0,,,,,,2.315798,48.87219
132,2020-1426507,2020-03-03,1,Vente,180000.0,17.0,,RUE DU ROULE,8397,75001.0,75101,Paris 1er Arrondissement,75,,,75101000AT0091,,,14,16.66,,,,,,,,,1,2.0,Appartement,14.0,2.0,,,,,,2.343624,48.86097
133,2020-1426508,2020-03-03,1,Vente,340000.0,11.0,B,RUE SAINT GILLES,8627,75003.0,75103,Paris 3e Arrondissement,75,,,75103000AN0034,,,14,28.31,,,,,,,,,1,2.0,Appartement,26.0,1.0,,,,,,2.365304,48.857822
134,2020-1426510,2020-02-24,1,Vente,265000.0,22.0,,RUE DE SAINT PETERSBOURG,8724,75008.0,75108,Paris 8e Arrondissement,75,,,75108000CD0074,,,59,,,,,,,,,,1,2.0,Appartement,19.0,1.0,,,,,,2.32563,48.881198
135,2020-1426511,2020-03-03,1,Vente,393820.0,155.0,,RUE DU FAUBOURG SAINT HONORE,3518,75008.0,75108,Paris 8e Arrondissement,75,,,75108000BD0012,,,144,30.02,,,,,,,,,1,2.0,Appartement,29.0,1.0,,,,,,2.306669,48.874195
136,2020-1426512,2020-03-05,1,Vente,680000.0,267.0,,RUE SAINT HONORE,8635,75001.0,75101,Paris 1er Arrondissement,75,,,75101000BD0006,,,33,,,,,,,,,,1,2.0,Appartement,30.0,2.0,,,,,,2.324769,48.867435
137,2020-1426515,2020-02-28,1,Vente,12075.0,26.0,,AV MARCEAU,5997,75008.0,75108,Paris 8e Arrondissement,75,,,75108000AO0066,,,103,,,,,,,,,,1,2.0,Appartement,15.0,1.0,,,,,,2.300045,48.86692
138,2020-1426518,2020-02-20,1,Vente,7000.0,62.0,,RUE DE SAINTONGE,8716,75003.0,75103,Paris 3e Arrondissement,75,,,75103000AJ0015,,,302,,,,,,,,,,1,2.0,Appartement,85.0,4.0,,,,,,2.365033,48.863707
139,2020-1426521,2020-03-04,1,Vente,730000.0,60.0,,RUE DE PONTHIEU,7612,75008.0,75108,Paris 8e Arrondissement,75,,,75108000BF0057,,,39,,,,,,,,,,1,2.0,Appartement,63.0,1.0,,,,,,2.305643,48.872341
140,2020-1426523,2020-02-18,1,Vente,2730000.0,40.0,,RUE DE BERRI,0904,75008.0,75108,Paris 8e Arrondissement,75,,,75108000BE0005,,,11,,,,,,,,,,1,2.0,Appartement,10.0,1.0,,,,,,2.307295,48.873868
141,2020-1426527,2020-02-21,1,Vente,332500.0,8.0,,RUE DES COUTURES SAINT GERVAIS,2412,75003.0,75103,Paris 3e Arrondissement,75,,,75103000AL0011,,,12,23.33,,,,,,,,,1,2.0,Appartement,23.0,1.0,,,,,,2.362625,48.860092
142,2020-1426529,2020-02-13,1,Vente,140000.0,65.0,,RUE CHARLOT,1880,75003.0,75103,Paris 3e Arrondissement,75,,,75103000AH0016,,,5,9.31,,,,,,,,,1,2.0,Appartement,10.0,1.0,,,,,,2.363466,48.863876
143,2020-1426532,2020-03-04,1,Vente,1131200.0,15.0,,RUE VIGNON,9804,75008.0,75108,Paris 8e Arrondissement,75,,,75108000BS0101,,,12,56.12,,,,,,,,,1,2.0,Appartement,54.0,2.0,,,,,,2.325896,48.871222
144,2020-1426533,2020-02-25,1,Vente,358000.0,12.0,,RUE DE CONSTANTINOPLE,2289,75008.0,75108,Paris 8e Arrondissement,75,,,75108000CF0043,,,47,32.06,,,,,,,,,1,2.0,Appartement,32.0,2.0,,,,,,2.319951,48.880335
145,2020-1426536,2020-02-20,1,Vente,212600.0,235.0,,RUE DU FAUBOURG SAINT HONORE,3518,75008.0,75108,Paris 8e Arrondissement,75,,,75108000AX0006,,,4,21.26,,,,,,,,,1,2.0,Appartement,23.0,1.0,,,,,,2.298479,48.877229
146,2020-1426540,2020-01-30,1,Vente,340000.0,20.0,,RUE DU GRENIER SAINT LAZARE,4320,75003.0,75103,Paris 3e Arrondissement,75,,,75103000AV0109,,,7,29.06,,,,,,,,,1,2.0,Appartement,23.0,1.0,,,,,,2.35349,48.863133
147,2020-1426543,2020-02-27,1,Vente,390000.0,10.0,,RUE DE MARIGNAN,6086,75008.0,75108,Paris 8e Arrondissement,75,,,75108000AQ0058,,,521,18.47,,,,,,,,,1,2.0,Appartement,19.0,2.0,,,,,,2.307406,48.868413
148,2020-1426553,2020-03-09,1,Vente,230000.0,68.0,,RUE SAINT HONORE,8635,75001.0,75101,Paris 1er Arrondissement,75,,,75101000AT0040,,,2,22.58,,,,,,,,,1,2.0,Appartement,15.0,1.0,,,,,,2.34348,48.861427
149,2020-1426555,2020-02-25,1,Vente,590000.0,1.0,,PL DES VICTOIRES,9741,75001.0,75101,Paris 1er Arrondissement,75,,,75101000AV0093,,,9,40.2,,,,,,,,,1,2.0,Appartement,32.0,2.0,,,,,,2.340729,48.865463
150,2020-1426560,2020-03-10,1,Vente,320000.0,13.0,,RUE SAINT GERMAIN L AUXERROIS,8623,75001.0,75101,Paris 1er Arrondissement,75,,,75101000AN0094,,,5,24.34,,,,,,,,,1,2.0,Appartement,22.0,2.0,,,,,,2.344821,48.858222
151,2020-1426561,2020-03-09,1,Vente,1230000.0,83.0,,BD BEAUMARCHAIS,0783,75003.0,75103,Paris 3e Arrondissement,75,,,75103000AM0045,,,24,,,,,,,,,,1,2.0,Appartement,7.0,1.0,,,,,,2.367307,48.858777
152,2020-1426562,2020-02-26,1,Vente,206000.0,62.0,,RUE NOTRE DAME DE NAZARETH,6834,75003.0,75103,Paris 3e Arrondissement,75,,,75103000AB0059,,,8,,,,,,,,,,1,2.0,Appartement,20.0,1.0,,,,,,2.356977,48.867907
153,2020-1426564,2020-03-16,1,Vente,2165000.0,90.0,,BD MALESHERBES,5951,75008.0,75108,Paris 8e Arrondissement,75,,,75108000CG0014,,,52,,,,,,,,,,1,2.0,Appartement,162.0,4.0,,,,,,2.3136,48.880584
154,2020-1426565,2020-03-05,1,Vente,272000.0,65.0,,RUE DES GRAVILLIERS,4302,75003.0,75103,Paris 3e Arrondissement,75,,,75103000AV0033,,,103,17.2,,,,,,,,,1,2.0,Appartement,18.0,1.0,,,,,,2.354418,48.864278
155,2020-1426573,2020-03-09,1,Vente,200000.0,40.0,,RUE DE LIEGE,5665,75008.0,75108,Paris 8e Arrondissement,75,,,75108000BZ0065,,,333,,,,,,,,,,1,2.0,Appartement,23.0,1.0,,,,,,2.324251,48.87945
156,2020-1426574,2020-02-25,1,Vente,470000.0,76.0,,BD MALESHERBES,5951,75008.0,75108,Paris 8e Arrondissement,75,,,75108000CG0101,,,50,39.64,,,,,,,,,1,2.0,Appartement,39.0,2.0,,,,,,2.314941,48.879408
157,2020-1426575,2020-02-28,1,Vente,400000.0,11.0,,RUE DE LA CORDERIE,2330,75003.0,75103,Paris 3e Arrondissement,75,,,75103000AG0043,,,4,28.63,,,,,,,,,1,2.0,Appartement,29.0,1.0,,,,,,2.362461,48.865194
158,2020-1426579,2020-02-27,1,Vente,2135922.0,16.0,,RUE DEBELLEYME,2616,75003.0,75103,Paris 3e Arrondissement,75,,,75103000AL0027,,,10,135.03,,,,,,,,,1,2.0,Appartement,142.0,4.0,,,,,,2.363667,48.861176
159,2020-1426583,2020-02-27,1,Vente,270000.0,58.0,,RUE PIERRE CHARRON,7420,75008.0,75108,Paris 8e Arrondissement,75,,,75108000AR0040,,,54,25.17,,,,,,,,,1,2.0,Appartement,40.0,1.0,,,,,,2.303484,48.869198
160,2020-1426587,2020-02-27,1,Vente,350000.0,3.0,,RUE BLONDEL,1021,75003.0,75103,Paris 3e Arrondissement,75,,,75103000AB0125,,,33,34.1,,,,,,,,,1,2.0,Appartement,26.0,2.0,,,,,,2.354833,48.868407
161,2020-1426589,2020-02-27,1,Vente,750000.0,42.0,,RUE DE MIROMESNIL,6387,75008.0,75108,Paris 8e Arrondissement,75,,,75108000CJ0031,,,32,75.95,,,,,,,,,1,2.0,Appartement,55.0,2.0,,,,,,2.316046,48.874155
162,2020-1426596,2020-03-05,1,Vente,333350.0,76.0,,RUE DE TURENNE,9506,75003.0,75103,Paris 3e Arrondissement,75,,,75103000AL0067,,,2,29.2,,,,,,,,,1,2.0,Appartement,21.0,1.0,,,,,,2.365106,48.860541
163,2020-1426599,2020-02-28,1,Vente,270000.0,4.0,,RUE QUENTIN BAUCHART,7954,75008.0,75108,Paris 8e Arrondissement,75,,,75108000AP0078,,,102,23.91,,,,,,,,,1,2.0,Appartement,19.0,1.0,,,,,,2.299702,48.868552
164,2020-1426600,2020-03-16,1,Vente,3550000.0,78.0,,BD MALESHERBES,5951,75008.0,75108,Paris 8e Arrondissement,75,,,75108000CG0102,,,34,,,,,,,,,,1,2.0,Appartement,21.0,1.0,,,,,,2.31483,48.879491
165,2020-1426607,2020-02-24,1,Vente,1928040.0,1.0,,RUE LORD BYRON,5751,75008.0,75108,Paris 8e Arrondissement,75,,,75108000AU0006,,,320,205.2,,,,,,,,,1,2.0,Appartement,100.0,4.0,,,,,,2.300893,48.872545
166,2020-1426612,2020-03-05,1,Vente,25000.0,3.0,,RUE JEAN GOUJON,4897,75008.0,75108,Paris 8e Arrondissement,75,,,75108000AL0022,,,70,,,,,,,,,,1,2.0,Appartement,83.0,2.0,,,,,,2.309731,48.866421
167,2020-1426617,2020-03-12,1,Vente,330000.0,9.0,,RUE DES GRAVILLIERS,4302,75003.0,75103,Paris 3e Arrondissement,75,,,75103000AS0017,,,3,21.46,,,,,,,,,1,2.0,Appartement,20.0,1.0,,,,,,2.357403,48.863561
168,2020-1426620,2020-02-26,1,Vente,910000.0,92.0,,RUE DE TURENNE,9506,75003.0,75103,Paris 3e Arrondissement,75,,,75103000AK0049,,,19,71.4,,,,,,,,,1,2.0,Appartement,64.0,4.0,,,,,,2.364824,48.861725
169,2020-1426622,2020-03-04,1,Vente,1500.0,68.0,,RUE SAINT DENIS,8525,75001.0,75101,Paris 1er Arrondissement,75,,,75101000AP0059,,,3,,,,,,,,,,1,2.0,Appartement,32.0,2.0,,,,,,2.349363,48.861602
170,2020-1426629,2020-03-20,1,Vente,577700.0,16.0,,RUE DEBELLEYME,2616,75003.0,75103,Paris 3e Arrondissement,75,,,75103000AL0027,,,4,,,,,,,,,,1,2.0,Appartement,39.0,2.0,,,,,,2.363667,48.861176
171,2020-1426630,2020-03-18,1,Vente,450000.0,6.0,,RUE DU VERTBOIS,9711,75003.0,75103,Paris 3e Arrondissement,75,,,75103000AF0090,,,11,41.02,,,,,,,,,1,2.0,Appartement,38.0,3.0,,,,,,2.35995,48.866775
172,2020-1426649,2020-03-16,1,Vente,890000.0,77.0,,RUE CHARLOT,1880,75003.0,75103,Paris 3e Arrondissement,75,,,75103000AH0022,,,128,57.24,,,,,,,,,1,2.0,Appartement,60.0,3.0,,,,,,2.364021,48.864435
173,2020-1426655,2020-03-16,1,Vente,128250.0,30.0,,RUE DE CONSTANTINOPLE,2289,75008.0,75108,Paris 8e Arrondissement,75,,,75108000CF0021,,,2,13.75,,,,,,,,,1,2.0,Appartement,12.0,1.0,,,,,,2.318326,48.880847
174,2020-1426656,2020-03-17,1,Vente,167130.0,80.0,,RUE DE MIROMESNIL,6387,75008.0,75108,Paris 8e Arrondissement,75,,,75108000CI0024,,,104,18.57,,,,,,,,,1,2.0,Appartement,18.0,1.0,,,,,,2.315891,48.877444
175,2020-1426657,2020-03-09,1,Vente,2899988.0,70.0,,RUE DU FAUBOURG SAINT HONORE,3518,75008.0,75108,Paris 8e Arrondissement,75,,,75108000BN0044,,,8,143.64,,,,,,,,,1,2.0,Appartement,150.0,5.0,,,,,,2.318235,48.870261
176,2020-1426662,2020-03-17,1,Vente,530000.0,14.0,,RUE DE NORMANDIE,6817,75003.0,75103,Paris 3e Arrondissement,75,,,75103000AH0046,,,4,44.69,,,,,,,,,1,2.0,Appartement,50.0,1.0,,,,,,2.364086,48.864025
177,2020-1426669,2020-03-03,1,Vente,918269.0,22.0,,AV DE L OPERA,6904,75001.0,75101,Paris 1er Arrondissement,75,,,75101000AW0083,,,60,55.36,,,,,,,,,1,2.0,Appartement,55.0,2.0,,,,,,2.334923,48.866197
178,2020-1426673,2020-03-27,1,Vente,37500.0,6.0,,RUE DE LA TREMOILLE,5388,75008.0,75108,Paris 8e Arrondissement,75,,,75108000AO0040,,,140,,,,,,,,,,1,2.0,Appartement,44.0,2.0,,,,,,2.302257,48.866293
179,2020-1426674,2020-03-31,1,Vente,444800.0,28.0,,RUE PIERRE LESCOT,7455,75001.0,75101,Paris 1er Arrondissement,75,,,75101000AQ0108,,,31,40.22,,,,,,,,,1,2.0,Appartement,48.0,2.0,,,,,,2.349217,48.863362
180,2020-1426675,2020-03-13,1,Vente,2670275.0,9.0,,RUE DE MARIGNAN,6086,75008.0,75108,Paris 8e Arrondissement,75,,,75108000AQ0030,,,1025,150.68,,,,,,,,,1,2.0,Appartement,150.0,5.0,,,,,,2.305663,48.868233
181,2020-1426680,2020-03-10,1,Vente,495000.0,6.0,,RUE DU PONT AUX CHOUX,7605,75003.0,75103,Paris 3e Arrondissement,75,,,75103000AK0032,,,7,42.15,,,,,,,,,1,2.0,Appartement,42.0,3.0,,,,,,2.36641,48.861163
182,2020-1426684,2020-03-11,1,Vente,451000.0,6.0,,RUE DU GRENIER SAINT LAZARE,4320,75003.0,75103,Paris 3e Arrondissement,75,,,75103000AV0102,,,3,38.13,,,,,,,,,1,2.0,Appartement,42.0,1.0,,,,,,2.354122,48.862924
183,2020-1426687,2020-04-03,1,Vente,1570000.0,140.0,,RUE DU TEMPLE,9191,75003.0,75103,Paris 3e Arrondissement,75,,,75103000AI0035,,,9,,,,,,,,,,1,2.0,Appartement,65.0,3.0,,,,,,2.359061,48.863686
184,2020-1426689,2020-03-12,1,Vente,401800.0,2.0,,RUE MALEVILLE,5956,75008.0,75108,Paris 8e Arrondissement,75,,,75108000CI0012,,,3,32.43,,,,,,,,,1,2.0,Appartement,40.0,2.0,,,,,,2.314639,48.87751
185,2020-1426696,2020-04-01,1,Vente,3480000.0,17.0,,RUE D ANJOU,0351,75008.0,75108,Paris 8e Arrondissement,75,,,75108000BN0012,,,10,179.09,,,,,,,,,1,2.0,Appartement,178.0,5.0,,,,,,2.320893,48.870582
186,2020-1426717,2020-04-10,1,Vente,40000.0,21.0,,RUE DES PETITS CHAMPS,7348,75001.0,75101,Paris 1er Arrondissement,75,,,75101000AV0064,,,26,,,,,,,,,,1,2.0,Appartement,7.0,0.0,,,,,,2.337601,48.866442
187,2020-1426721,2020-04-17,1,Vente,217296.0,14.0,,RUE DE LA CORDERIE,2330,75003.0,75103,Paris 3e Arrondissement,75,,,75103000AG0079,,,30,57.97,,,,,,,,,1,2.0,Appartement,54.0,3.0,,,,,,2.362968,48.865495
188,2020-1426723,2020-04-17,1,Vente,132500.0,60.0,,RUE DU VERTBOIS,9711,75003.0,75103,Paris 3e Arrondissement,75,,,75103000AB0087,,,53,31.57,,,,,,,,,1,2.0,Appartement,27.0,2.0,,,,,,2.356554,48.867531
189,2020-1426726,2020-03-26,1,Vente,22000.0,7.0,,RUE SAINT HYACINTHE,8641,75001.0,75101,Paris 1er Arrondissement,75,,,75101000AY0055,,,30,,,,,,,,,,1,2.0,Appartement,57.0,4.0,,,,,,2.331368,48.865975
190,2020-1426737,2020-04-17,1,Vente,902600.0,97.0,,RUE DE TURENNE,9506,75003.0,75103,Paris 3e Arrondissement,75,,,75103000AK0052,,,36,56.78,,,,,,,,,1,2.0,Appartement,55.0,3.0,,,,,,2.364405,48.861526
191,2020-1426751,2020-04-08,1,Vente,,15.0,,RUE DE MOSCOU,6573,75008.0,75108,Paris 8e Arrondissement,75,,,75108000CE0092,,,29,94.05,,,,,,,,,1,2.0,Appartement,93.0,4.0,,,,,,2.324142,48.880661
192,2020-1426752,2020-04-30,1,Vente,340000.0,46.0,,RUE DE MOSCOU,6573,75008.0,75108,Paris 8e Arrondissement,75,,,75108000CE0070,,,9,39.57,,,,,,,,,1,2.0,Appartement,38.0,2.0,,,,,,2.322877,48.881967
193,2020-1426759,2020-04-15,1,Vente,1797670.0,19.0,,PL DU MARCHE ST HONORE,6033,75001.0,75101,Paris 1er Arrondissement,75,,,75101000AZ0030,,,13,,,,,,,,,,1,2.0,Appartement,92.0,4.0,,,,,,2.330927,48.866588
194,2020-1426760,2020-02-17,1,Vente,427750.0,40.0,,RUE DE MONTMORENCY,6517,75003.0,75103,Paris 3e Arrondissement,75,,,75103000AV0076,,,30,35.56,,,,,,,,,1,2.0,Appartement,35.0,3.0,,,,,,2.353747,48.863688
196,2020-1426764,2020-04-06,1,Vente,17000.0,13.0,,RUE DE LABORDE,5200,75008.0,75108,Paris 8e Arrondissement,75,,,75108000BW0045,,,35,,,,,,,,,,1,2.0,Appartement,100.0,2.0,,,,,,2.32155,48.875628
197,2020-1426766,2020-03-20,1,Vente,342000.0,192.0,,BD HAUSSMANN,4485,75008.0,75108,Paris 8e Arrondissement,75,,,75108000BC0030,,,14,27.84,,,,,,,,,1,2.0,Appartement,35.0,1.0,,,,,,2.305418,48.875179
198,2020-1426770,2020-03-18,1,Vente,760000.0,16.0,,RUE DU PARC ROYAL,7061,75003.0,75103,Paris 3e Arrondissement,75,,,75103000AM0105,,,657,106.71,,,,,,,,,1,2.0,Appartement,110.0,4.0,,,,,,2.362974,48.859331
199,2020-1426775,2020-05-07,1,Vente,102500.0,13.0,,RUE DE LA FERRONNERIE,3621,75001.0,75101,Paris 1er Arrondissement,75,,,75101000AO0073,,,9,8.59,,,,,,,,,1,2.0,Appartement,9.0,1.0,,,,,,2.347516,48.860102
200,2020-1426778,2020-05-04,1,Vente,430000.0,7.0,,RUE DES PETITS CHAMPS,7348,75001.0,75101,Paris 1er Arrondissement,75,,,75101000AV0071,,,7,35.69,,,,,,,,,1,2.0,Appartement,34.0,2.0,,,,,,2.338792,48.866172
201,2020-1426779,2020-04-29,1,Vente,1358150.0,13.0,,RUE DE LABORDE,5200,75008.0,75108,Paris 8e Arrondissement,75,,,75108000BW0045,,,10,,,,,,,,,,1,2.0,Appartement,100.0,2.0,,,,,,2.32155,48.875628
202,2020-1426782,2020-04-29,1,Vente,232308.0,9.0,,RUE VOLTA,9905,75003.0,75103,Paris 3e Arrondissement,75,,,75103000AE0142,,,18,19.28,,,,,,,,,1,2.0,Appartement,24.0,1.0,,,,,,2.356779,48.865044
203,2020-1426783,2020-04-30,1,Vente,653850.0,2.0,,RUE SAINT HONORE,8635,75001.0,75101,Paris 1er Arrondissement,75,,,75101000AO0001,,,100241,63.08,,,,,,,,,1,2.0,Appartement,66.0,2.0,,,,,,2.345729,48.860977
204,2020-1426786,2020-03-31,1,Vente,393000.0,314.0,,RUE SAINT MARTIN,8694,75003.0,75103,Paris 3e Arrondissement,75,,,75103000AB0147,,,171,33.16,,,,,,,,,1,2.0,Appartement,33.0,2.0,,,,,,2.355635,48.867972
205,2020-1426789,2020-05-12,1,Vente,231200.0,7.0,,RUE VAUVILLIERS,9631,75001.0,75101,Paris 1er Arrondissement,75,,,75101000AT0028,,,3,15.2,,,,,,,,,1,2.0,Appartement,18.0,1.0,,,,,,2.343171,48.86163
206,2020-1426790,2020-05-14,1,Vente,795000.0,10.0,,RUE DE PENTHIEVRE,7237,75008.0,75108,Paris 8e Arrondissement,75,,,75108000BL0010,,,11,,,,,,,,,,1,2.0,Appartement,70.0,4.0,,,,,,2.316529,48.873233
207,2020-1426793,2020-05-13,1,Vente,609.8,10.0,,RUE DU PONT AUX CHOUX,7605,75003.0,75103,Paris 3e Arrondissement,75,,,75103000AK0036,,,18,,,,,,,,,,1,2.0,Appartement,50.0,3.0,,,,,,2.365932,48.861209
208,2020-1426802,2020-04-30,1,Vente,1349100.0,27.0,,RUE DES PETITS CHAMPS,7348,75001.0,75101,Paris 1er Arrondissement,75,,,75101000AW0035,,,107,86.64,,,,,,,,,1,2.0,Appartement,96.0,4.0,,,,,,2.33709,48.866591
209,2020-1426805,2020-05-14,1,Vente,120000.0,81.0,,BD DE COURCELLES,2386,75008.0,75108,Paris 8e Arrondissement,75,,,75108000AY0016,,,418,9.02,,,,,,,,,1,2.0,Appartement,10.0,1.0,,,,,,2.300027,48.877899
210,2020-1426810,2020-05-13,1,Vente,1535000.0,15.0,,RUE DU LOUVRE,5825,75001.0,75101,Paris 1er Arrondissement,75,,,75101000AR0068,,,211,86.6,,,,,,,,,1,2.0,Appartement,86.0,3.0,,,,,,2.341748,48.863545
211,2020-1426819,2020-05-20,1,Vente,395000.0,95.0,,RUE VIEILLE DU TEMPLE,9783,75003.0,75103,Paris 3e Arrondissement,75,,,75103000AQ0054,,,5,25.49,,,,,,,,,1,2.0,Appartement,25.0,2.0,,,,,,2.361,48.860178
212,2020-1426824,2020-05-22,1,Vente,257400.0,7.0,,RUE DE PONTHIEU,7612,75008.0,75108,Paris 8e Arrondissement,75,,,75108000BH0049,,,147,18.64,,,,,,,,,1,2.0,Appartement,20.0,1.0,,,,,,2.310586,48.870133
213,2020-1426825,2020-05-18,1,Vente,385000.0,14.0,,RUE DES COUTURES SAINT GERVAIS,2412,75003.0,75103,Paris 3e Arrondissement,75,,,75103000AL0009,,,111,27.28,,,,,,,,,1,2.0,Appartement,33.0,2.0,,,,,,2.362446,48.860212
214,2020-1426826,2020-05-15,1,Vente,1300000.0,20.0,,RUE DU LOUVRE,5825,75001.0,75101,Paris 1er Arrondissement,75,,,75101000AT0168,,,82,96.37,,,,,,,,,1,2.0,Appartement,98.0,3.0,,,,,,2.341374,48.861483
215,2020-1426830,2020-05-18,1,Vente,2550000.0,8.0,,RUE D ARGENTEUIL,0433,75001.0,75101,Paris 1er Arrondissement,75,,,75101000AX0040,,,14,153.02,,,,,,,,,1,2.0,Appartement,156.0,4.0,,,,,,2.334185,48.864936
216,2020-1426832,2020-05-18,1,Vente,385550.0,10.0,,RUE COQUILLIERE,2318,75001.0,75101,Paris 1er Arrondissement,75,,,75101000AR0094,,,7,28.6,,,,,,,,,1,2.0,Appartement,28.0,2.0,,,,,,2.343699,48.863762
217,2020-1426833,2020-05-22,1,Vente,400270.0,31.0,,RUE CHARLOT,1880,75003.0,75103,Paris 3e Arrondissement,75,,,75103000AI0084,,,17,25.6,,,,,,,,,1,2.0,Appartement,26.0,2.0,,,,,,2.361698,48.862514
218,2020-1426834,2020-05-15,1,Vente,374000.0,118.0,,RUE VIEILLE DU TEMPLE,9783,75003.0,75103,Paris 3e Arrondissement,75,,,75103000AL0024,,,13,27.1,,,,,,,,,1,2.0,Appartement,32.0,1.0,,,,,,2.363625,48.861219
219,2020-1426835,2020-05-20,1,Vente,150000.0,7.0,,RUE DES FILLES DU CALVAIRE,3643,75003.0,75103,Paris 3e Arrondissement,75,,,75103000AJ0026,,,251,15.27,,,,,,,,,1,2.0,Appartement,15.0,1.0,,,,,,2.3652,48.862602
220,2020-1426836,2020-05-26,1,Vente,1090000.0,114.0,,RUE VIEILLE DU TEMPLE,9783,75003.0,75103,Paris 3e Arrondissement,75,,,75103000AL0022,,,32,63.34,,,,,,,,,1,2.0,Appartement,64.0,3.0,,,,,,2.36347,48.861147
221,2020-1426839,2020-05-12,1,Vente,620000.0,55.0,,RUE AU MAIRE,5927,75003.0,75103,Paris 3e Arrondissement,75,,,75103000AD0029,,,8,48.37,,,,,,,,,1,2.0,Appartement,47.0,3.0,,,,,,2.354699,48.864762
222,2020-1426841,2020-04-30,1,Vente,472986.0,3.0,,RUE DE BRETAGNE,1275,75003.0,75103,Paris 3e Arrondissement,75,,,75103000AK0068,,,11,48.12,,,,,,,,,1,2.0,Appartement,49.0,3.0,,,,,,2.363877,48.861956
223,2020-1426842,2020-05-13,1,Vente,310000.0,9.0,,RUE DES PETITS CHAMPS,7348,75001.0,75101,Paris 1er Arrondissement,75,,,75101000AV0070,,,3,22.18,,,,,,,,,1,2.0,Appartement,20.0,1.0,,,,,,2.338693,48.86621
224,2020-1426849,2020-05-20,1,Vente,471600.0,77.0,,BD MALESHERBES,5951,75008.0,75108,Paris 8e Arrondissement,75,,,75108000CI0041,,,170,35.39,,,,,,,,,1,2.0,Appartement,44.0,2.0,,,,,,2.316295,48.877129
225,2020-1426855,2020-04-30,1,Vente,1150000.0,18.0,,RUE DE MIROMESNIL,6387,75008.0,75108,Paris 8e Arrondissement,75,,,75108000BM0005,,,145,,,,,,,,,,1,2.0,Appartement,117.0,3.0,,,,,,2.31666,48.872583
226,2020-1426858,2020-05-14,1,Vente,917000.0,38.0,,RUE DE PENTHIEVRE,7237,75008.0,75108,Paris 8e Arrondissement,75,,,75108000BK0015,,,45,72.44,,,,,,,,,1,2.0,Appartement,70.0,2.0,,,,,,2.313006,48.872335
227,2020-1426859,2020-05-25,1,Vente,455000.0,8.0,,RUE BAILLEUL,0632,75001.0,75101,Paris 1er Arrondissement,75,,,75101000AT0172,,,61,39.07,,,,,,,,,1,2.0,Appartement,39.0,2.0,,,,,,2.341627,48.861077
228,2020-1426861,2020-05-19,1,Vente,160000.0,6.0,,RUE SAINT FLORENTIN,8611,75001.0,75101,Paris 1er Arrondissement,75,,,75101000BD0005,,,25,18.9,,,,,,,,,1,2.0,Appartement,19.0,1.0,,,,,,2.324386,48.867273
229,2020-1426862,2020-05-14,1,Vente,50000.0,26.0,,RUE CAMBON,1449,75001.0,75101,Paris 1er Arrondissement,75,,,75101000BC0067,,,27,,,,,,,,,,1,2.0,Appartement,102.0,4.0,,,,,,2.327093,48.867873
230,2020-1426867,2020-05-26,1,Vente,1089600.0,80.0,,RUE DES ARCHIVES,0420,75003.0,75103,Paris 3e Arrondissement,75,,,75103000AI0063,,,18,74.05,,,,,,,,,1,2.0,Appartement,82.0,3.0,,,,,,2.360513,48.862838
231,2020-1426869,2020-05-25,1,Vente,5000.0,29.0,,RUE DE MOSCOU,6573,75008.0,75108,Paris 8e Arrondissement,75,,,75108000CE0077,,,37,,,,,,,,,,1,2.0,Appartement,37.0,2.0,,,,,,2.323436,48.881136
232,2020-1426875,2020-05-29,1,Vente,4000.0,2.0,,RUE BLONDEL,1021,75003.0,75103,Paris 3e Arrondissement,75,,,75103000AB0127,,,37,,,,,,,,,,1,2.0,Appartement,115.0,5.0,,,,,,2.355085,48.868584
233,2020-1426877,2020-05-29,1,Vente,500000.0,9.0,,RUE DU PELICAN,7226,75001.0,75101,Paris 1er Arrondissement,75,,,75101000AS0020,,,22,36.26,,,,,,,,,1,2.0,Appartement,16.0,1.0,,,,,,2.339632,48.862586
234,2020-1426884,2020-05-26,1,Vente,2716600.0,73.0,,AV FRANKLIN D ROOSEVELT,3824,75008.0,75108,Paris 8e Arrondissement,75,,,75108000BE0055,,,29,174.92,,,,,,,,,1,2.0,Appartement,30.0,2.0,,,,,,2.309787,48.872921
235,2020-1426887,2020-05-14,1,Vente,1000000.0,69.0,,RUE DU FAUBOURG SAINT HONORE,3518,75008.0,75108,Paris 8e Arrondissement,75,,,75108000BJ0024,,,8,61.07,,,,,,,,,1,2.0,Appartement,63.0,3.0,,,,,,2.315122,48.87133
236,2020-1426889,2020-05-18,1,Vente,1260000.0,50.0,,RUE CHAPON,1771,75003.0,75103,Paris 3e Arrondissement,75,,,75103000AV0049,,,7,94.27,,,,,,,,,1,2.0,Appartement,100.0,3.0,,,,,,2.354044,48.864104
237,2020-1426890,2020-05-22,1,Vente,450000.0,39.0,,RUE SAINT ROCH,8740,75001.0,75101,Paris 1er Arrondissement,75,,,75101000AZ0057,,,6,32.04,,,,,,,,,1,2.0,Appartement,33.0,1.0,,,,,,2.332699,48.866313
238,2020-1426891,2020-05-26,1,Vente,1000.0,96.0,,RUE DES ARCHIVES,0420,75003.0,75103,Paris 3e Arrondissement,75,,,75103000AI0071,,,21,,,,,,,,,,1,2.0,Appartement,134.0,5.0,,,,,,2.361066,48.863505
239,2020-1426893,2020-05-29,1,Vente,185000.0,12.0,,RUE D EDIMBOURG,3118,75008.0,75108,Paris 8e Arrondissement,75,,,75108000CF0065,,,2,,,,,,,,,,1,2.0,Appartement,20.0,1.0,,,,,,2.320638,48.879595
240,2020-1426902,2020-05-25,1,Vente,460000.0,26.0,,RUE NOTRE DAME DE NAZARETH,6834,75003.0,75103,Paris 3e Arrondissement,75,,,75103000AF0058,,,58,38.85,,,,,,,,,1,2.0,Appartement,45.0,2.0,,,,,,2.359931,48.867496
241,2020-1426906,2020-06-01,1,Vente,1299900.0,18.0,,RUE DE BERRI,0904,75008.0,75108,Paris 8e Arrondissement,75,,,75108000BF0065,,,298,93.36,,,,,,,,,1,2.0,Appartement,95.0,3.0,,,,,,2.305618,48.872708
242,2020-1426907,2020-03-03,2,Vente,200000.0,6.0,,RUE DE TURIN,9510,75008.0,75108,Paris 8e Arrondissement,75,,,75108000BZ0039,,,27,,,,,,,,,,1,2.0,Appartement,29.0,2.0,,,,,,2.325605,48.879793
243,2020-1426908,2020-03-03,3,Vente,3000.0,6.0,,RUE DE TURIN,9510,75008.0,75108,Paris 8e Arrondissement,75,,,75108000BZ0039,,,29,,,,,,,,,,1,2.0,Appartement,22.0,1.0,,,,,,2.325605,48.879793
244,2020-1426909,2020-05-27,1,Vente,459300.0,147.0,,RUE SAINT MARTIN,8694,75003.0,75103,Paris 3e Arrondissement,75,,,75103000AU0105,,,38,,,,,,,,,,1,2.0,Appartement,34.0,2.0,,,,,,2.35146,48.861806
245,2020-1426914,2020-05-07,1,Vente,180501.56,20.0,,RUE DES HALLES,4461,75001.0,75101,Paris 1er Arrondissement,75,,,75101000AO0086,,,13,24.5,,,,,,,,,1,2.0,Appartement,24.0,1.0,,,,,,2.346709,48.860067
246,2020-1426915,2020-05-22,1,Vente,711500.0,18.0,,RUE MONTMARTRE,6513,75001.0,75101,Paris 1er Arrondissement,75,,,75101000AQ0011,,,58,52.79,,,,,,,,,1,2.0,Appartement,53.0,4.0,,,,,,2.346079,48.864
247,2020-1426916,2020-05-28,1,Vente,349900.0,60.0,,RUE DE L ARBRE SEC,0407,75001.0,75101,Paris 1er Arrondissement,75,,,75101000AT0115,,,6,32.82,,,,,,,,,1,2.0,Appartement,40.0,2.0,,,,,,2.342673,48.861186
248,2020-1426922,2020-05-25,1,Vente,700000.0,187.0,,RUE DU TEMPLE,9191,75003.0,75103,Paris 3e Arrondissement,75,,,75103000AF0117,,,50,60.58,,,,,,,,,1,2.0,Appartement,60.0,3.0,,,,,,2.359943,48.865751
249,2020-1426924,2020-05-26,1,Vente,185000.0,41.0,,RUE DU COLISEE,2185,75008.0,75108,Paris 8e Arrondissement,75,,,75108000BI0047,,,65,15.35,,,,,,,,,1,2.0,Appartement,14.0,1.0,,,,,,2.311088,48.872088
250,2020-1426934,2020-05-15,1,Vente,300000.0,31.0,,RUE TRONCHET,9470,75008.0,75108,Paris 8e Arrondissement,75,,,75108000BS0075,,,145,,,,,,,,,,1,2.0,Appartement,25.0,1.0,,,,,,2.326235,48.873009
251,2020-1426937,2020-05-15,1,Vente,427000.0,6.0,,RUE HEROLD,4619,75001.0,75101,Paris 1er Arrondissement,75,,,75101000AR0030,,,12,,,,,,,,,,1,2.0,Appartement,40.0,1.0,,,,,,2.341276,48.864682
252,2020-1426938,2020-05-27,1,Vente,379848.0,27.0,,RUE DE RICHELIEU,8212,75001.0,75101,Paris 1er Arrondissement,75,,,75101000AX0058,,,16,,,,,,,,,,1,2.0,Appartement,20.0,2.0,,,,,,2.336163,48.864981
253,2020-1426942,2020-05-28,1,Vente,750000.0,18.0,,RUE DE LA GRANDE TRUANDERIE,4278,75001.0,75101,Paris 1er Arrondissement,75,,,75101000AQ0085,,,8,61.74,,,,,,,,,1,2.0,Appartement,61.0,2.0,,,,,,2.348925,48.862988
254,2020-1426943,2020-05-28,1,Vente,730000.0,6.0,,RUE CHARLES-FRANCOIS DUPUIS,3015,75003.0,75103,Paris 3e Arrondissement,75,,,75103000AG0036,,,18,60.15,,,,,,,,,1,2.0,Appartement,55.0,3.0,,,,,,2.363282,48.865119
255,2020-1426945,2020-06-01,1,Vente,432000.0,76.0,,AV DES CHAMPS ELYSEES,1733,75008.0,75108,Paris 8e Arrondissement,75,,,75108000BG0009,,,325,26.47,,,,,,,,,1,2.0,Appartement,35.0,1.0,,,,,,2.304678,48.871669
256,2020-1426953,2020-06-05,1,Vente,15000.0,56.0,,RUE DU ROCHER,8291,75008.0,75108,Paris 8e Arrondissement,75,,,75108000BX0049,,,26,3.64,,,,,,,,,1,2.0,Appartement,5.0,1.0,,,,,,2.319888,48.878463
257,2020-1426955,2020-06-03,1,Vente,1487000.0,17.0,,RUE DE SAINT PETERSBOURG,8724,75008.0,75108,Paris 8e Arrondissement,75,,,75108000CD0018,,,6,142.02,,,,,,,,,1,2.0,Appartement,138.0,4.0,,,,,,2.32498,48.88135
258,2020-1426956,2020-05-19,1,Vente,252700.0,9.0,,RUE DES GRAVILLIERS,4302,75003.0,75103,Paris 3e Arrondissement,75,,,75103000AS0017,,,6,19.99,,,,,,,,,1,2.0,Appartement,20.0,1.0,,,,,,2.357403,48.863561
259,2020-1426962,2020-06-04,1,Vente,5000.0,87.0,,RUE SAINT-DENIS,8525,75001.0,75101,Paris 1er Arrondissement,75,,,75101000AP0041,,,32,,,,,,,,,,1,2.0,Appartement,110.0,5.0,,,,,,2.349117,48.861982
260,2020-1426964,2020-05-29,1,Vente,2010000.0,33.0,B,RUE DE MOSCOU,6573,75008.0,75108,Paris 8e Arrondissement,75,,,75108000CE0074,,,14,,,,,,,,,,1,2.0,Appartement,165.0,5.0,,,,,,2.322897,48.881478
261,2020-1426965,2020-04-20,1,Vente,213800.0,86.0,,RUE LA BOETIE,5194,75008.0,75108,Paris 8e Arrondissement,75,,,75108000BE0042,,,13,16.29,,,,,,,,,1,2.0,Appartement,16.0,1.0,,,,,,2.309534,48.87255
262,2020-1426967,2020-05-29,1,Vente,465500.0,74.0,,RUE DE TURENNE,9506,75003.0,75103,Paris 3e Arrondissement,75,,,75103000AL0069,,,104,36.24,,,,,,,,,1,2.0,Appartement,38.0,2.0,,,,,,2.365129,48.860378
263,2020-1426968,2020-06-12,1,Vente,10800.0,33.0,,BD DE COURCELLES,2386,75008.0,75108,Paris 8e Arrondissement,75,,,75108000CG0001,,,167,,,,,,,,,,1,2.0,Appartement,190.0,5.0,,,,,,2.312113,48.8804
264,2020-1426970,2020-06-12,1,Vente,12000.0,33.0,,BD DE COURCELLES,2386,75008.0,75108,Paris 8e Arrondissement,75,,,75108000CG0001,,,166,,,,,,,,,,1,2.0,Appartement,115.0,4.0,,,,,,2.312113,48.8804
265,2020-1426971,2020-06-12,1,Vente,12400.0,33.0,,BD DE COURCELLES,2386,75008.0,75108,Paris 8e Arrondissement,75,,,75108000CG0001,,,162,,,,,,,,,,1,2.0,Appartement,115.0,3.0,,,,,,2.312113,48.8804
266,2020-1426973,2020-06-12,1,Vente,21200.0,33.0,,BD DE COURCELLES,2386,75008.0,75108,Paris 8e Arrondissement,75,,,75108000CG0001,,,161,,,,,,,,,,1,2.0,Appartement,190.0,5.0,,,,,,2.312113,48.8804
267,2020-1426977,2020-05-28,1,Vente,30000.0,37.0,,RUE DE POITOU,7572,75003.0,75103,Paris 3e Arrondissement,75,,,75103000AQ0032,,,20,8.48,,,,,,,,,1,2.0,Appartement,10.0,1.0,,,,,,2.361774,48.861586
268,2020-1426981,2020-06-10,1,Vente,790250.0,4.0,,RUE DE MOSCOU,6573,75008.0,75108,Paris 8e Arrondissement,75,,,75108000BZ0028,,,28,69.64,,,,,,,,,1,2.0,Appartement,63.0,4.0,,,,,,2.326696,48.879939
269,2020-1426982,2020-05-22,1,Vente,281420.0,170.0,,RUE DU TEMPLE,9191,75003.0,75103,Paris 3e Arrondissement,75,,,75103000AG0110,,,102,19.44,,,,,,,,,1,2.0,Appartement,19.0,1.0,,,,,,2.361632,48.865995
270,2020-1426984,2020-06-09,1,Vente,5000.0,21.0,,RUE CHARLOT,1880,75003.0,75103,Paris 3e Arrondissement,75,,,75103000AI0115,,,87,,,,,,,,,,1,2.0,Appartement,113.0,4.0,,,,,,2.361325,48.862146
271,2020-1426986,2020-06-10,1,Vente,224742.0,14.0,,RUE LINCOLN,5692,75008.0,75108,Paris 8e Arrondissement,75,,,75108000AR0025,,,205,14.21,,,,,,,,,1,2.0,Appartement,11.0,1.0,,,,,,2.303419,48.870407
272,2020-1426989,2020-06-16,1,Vente,109000.0,38.0,,RUE DE LABORDE,5200,75008.0,75108,Paris 8e Arrondissement,75,,,75108000CI0067,,,25,7.34,,,,,,,,,1,2.0,Appartement,8.0,1.0,,,,,,2.317283,48.875759
273,2020-1426994,2020-06-04,1,Vente,357000.0,25.0,,RUE DU MONT THABOR,6537,75001.0,75101,Paris 1er Arrondissement,75,,,75101000BD0049,,,1,24.6,,,,,,,,,1,2.0,Appartement,25.0,1.0,,,,,,2.325011,48.866632
274,2020-1426995,2020-06-03,1,Vente,265000.0,26.0,,RUE MONTMARTRE,6513,75001.0,75101,Paris 1er Arrondissement,75,,,75101000AQ0007,,,25,19.18,,,,,,,,,1,2.0,Appartement,20.0,1.0,,,,,,2.345875,48.864218
275,2020-1426997,2020-06-03,1,Vente,600000.0,37.0,,RUE DE MIROMESNIL,6387,75008.0,75108,Paris 8e Arrondissement,75,,,75108000BK0028,,,38,48.02,,,,,,,,,1,2.0,Appartement,47.0,2.0,,,,,,2.315628,48.873591
276,2020-1426999,2020-06-02,1,Vente,420000.0,92.0,,RUE DE TURENNE,9506,75003.0,75103,Paris 3e Arrondissement,75,,,75103000AK0049,,,6,43.3,,,,,,,,,1,2.0,Appartement,45.0,2.0,,,,,,2.364824,48.861725
277,2020-1427006,2020-06-02,1,Vente,455000.0,99.0,,RUE QUINCAMPOIX,7970,75003.0,75103,Paris 3e Arrondissement,75,,,75103000AU0022,,,11,31.42,,,,,,,,,1,2.0,Appartement,32.0,2.0,,,,,,2.351197,48.862802
278,2020-1427007,2020-06-09,1,Vente,239900.0,76.0,,RUE DE TURENNE,9506,75003.0,75103,Paris 3e Arrondissement,75,,,75103000AL0067,,,52,21.3,,,,,,,,,1,2.0,Appartement,22.0,1.0,,,,,,2.365106,48.860541
279,2020-1427008,2020-06-17,1,Vente,1895000.0,66.0,,RUE DE ROME,8339,75008.0,75108,Paris 8e Arrondissement,75,,,75108000CE0018,,,21,150.85,,,,,,,,,1,2.0,Appartement,20.0,1.0,,,,,,2.32172,48.880423
280,2020-1427017,2020-06-18,1,Vente,745000.0,7.0,,RUE DES PETITS CHAMPS,7348,75001.0,75101,Paris 1er Arrondissement,75,,,75101000AV0071,,,39,43.84,,,,,,,,,1,2.0,Appartement,76.0,3.0,,,,,,2.338792,48.866172
281,2020-1427020,2020-06-15,1,Vente,550000.0,43.0,,RUE DE BRETAGNE,1275,75003.0,75103,Paris 3e Arrondissement,75,,,75103000AI0077,,,15,32.06,,,,,,,,,1,2.0,Appartement,33.0,2.0,,,,,,2.361706,48.863143
282,2020-1427022,2020-06-10,1,Vente,165000.0,53.0,,RUE AU MAIRE,5927,75003.0,75103,Paris 3e Arrondissement,75,,,75103000AD0030,,,3,11.46,,,,,,,,,1,2.0,Appartement,12.0,1.0,,,,,,2.354839,48.864831
283,2020-1427023,2020-06-08,1,Vente,460000.0,32.0,,RUE DE CONSTANTINOPLE,2289,75008.0,75108,Paris 8e Arrondissement,75,,,75108000CF0020,,,4,36.2,,,,,,,,,1,2.0,Appartement,37.0,2.0,,,,,,2.318215,48.880872
284,2020-1427026,2020-05-26,1,Vente,120000.0,169.0,,RUE DU TEMPLE,9191,75003.0,75103,Paris 3e Arrondissement,75,,,75103000AE0036,,,13,9.73,,,,,,,,,1,2.0,Appartement,11.0,1.0,,,,,,2.359539,48.865053
285,2020-1427027,2020-05-26,1,Vente,728500.0,10.0,,AV DE MESSINE,6296,75008.0,75108,Paris 8e Arrondissement,75,,,75108000CI0101,,,138,48.51,,,,,,,,,1,2.0,Appartement,40.0,1.0,,,,,,2.31455,48.876075
286,2020-1427028,2020-06-15,1,Vente,475000.0,48.0,,RUE DU COLISEE,2185,75008.0,75108,Paris 8e Arrondissement,75,,,75108000BI0059,,,14,,,,,,,,,,1,2.0,Appartement,38.0,2.0,,,,,,2.311651,48.871803
287,2020-1427030,2020-06-19,1,Vente,45000.0,4.0,,PAS SAINTE AVOIE,8540,75003.0,75103,Paris 3e Arrondissement,75,,,75103000AT0059,,,32,5.87,,,,,,,,,1,2.0,Appartement,45.0,2.0,,,,,,2.356362,48.860725
288,2020-1427032,2020-06-17,1,Vente,1145000.0,6.0,,RUE DE LABORDE,5200,75008.0,75108,Paris 8e Arrondissement,75,,,75108000BW0025,,,6,90.09,,,,,,,,,1,2.0,Appartement,90.0,4.0,,,,,,2.322056,48.876058
289,2020-1427034,2020-05-28,1,Vente,350000.0,104.0,,RUE LA BOETIE,5194,75008.0,75108,Paris 8e Arrondissement,75,,,75108000BG0044,,,29,32.8,,,,,,,,,1,2.0,Appartement,29.0,2.0,,,,,,2.308272,48.872115
290,2020-1427037,2020-06-03,1,Vente,100000.0,43.0,,RUE DE RICHELIEU,8212,75001.0,75101,Paris 1er Arrondissement,75,,,75101000AW0040,,,221,4.08,,,,,,,,,1,2.0,Appartement,11.0,1.0,,,,,,2.336791,48.866161
291,2020-1427039,2020-05-28,1,Vente,535000.0,93.0,,RUE DU FAUBOURG SAINT HONORE,3518,75008.0,75108,Paris 8e Arrondissement,75,,,75108000BJ0007,,,12,39.63,,,,,,,,,1,2.0,Appartement,40.0,2.0,,,,,,2.312645,48.871884
292,2020-1427040,2020-05-28,1,Vente,528515.0,4.0,,CITE NOEL,6792,75003.0,75103,Paris 3e Arrondissement,75,,,75103000AT0024,,,7,,,,,,,,,,1,2.0,Appartement,45.0,2.0,,,,,,2.354859,48.861351
293,2020-1427043,2020-06-19,1,Vente,675500.0,41.0,,RUE NOTRE DAME DE NAZARETH,6834,75003.0,75103,Paris 3e Arrondissement,75,,,75103000AB0076,,,14,54.43,,,,,,,,,1,2.0,Appartement,52.0,3.0,,,,,,2.357563,48.867414
294,2020-1427044,2020-06-22,1,Vente,303000.0,13.0,,RUE COMMINES,2249,75003.0,75103,Paris 3e Arrondissement,75,,,75103000AK0009,,,18,22.42,,,,,,,,,1,2.0,Appartement,22.0,1.0,,,,,,2.365821,48.862159
295,2020-1427046,2020-06-05,1,Vente,,13.0,,RUE CLEMENT MAROT,2104,75008.0,75108,Paris 8e Arrondissement,75,,,75108000AN0018,,,52,,,,,,,,,,1,2.0,Appartement,173.0,6.0,,,,,,2.303122,48.867523
297,2020-1427052,2020-06-02,1,Vente,748450.0,44.0,,RUE CHARLOT,1880,75003.0,75103,Paris 3e Arrondissement,75,,,75103000AK0125,,,9,,,,,,,,,,1,2.0,Appartement,42.0,2.0,,,,,,2.362528,48.862737
298,2020-1427053,2020-06-22,1,Vente,173000.0,8.0,,RUE REAUMUR,8073,75003.0,75103,Paris 3e Arrondissement,75,,,75103000AE0025,,,36,,,,,,,,,,1,2.0,Appartement,18.0,1.0,,,,,,2.359174,48.865117
299,2020-1427055,2020-06-17,1,Vente,83000.0,9.0,,RUE DU CHEVALIER DE ST-GEORGE,1993,75008.0,75108,Paris 8e Arrondissement,75,,,75108000BQ0036,,,47,6.0,,,,,,,,,1,2.0,Appartement,13.0,2.0,,,,,,2.324663,48.868637
300,2020-1427057,2020-06-19,1,Vente,847112.0,39.0,,RUE NOTRE DAME DE NAZARETH,6834,75003.0,75103,Paris 3e Arrondissement,75,,,75103000AB0075,,,10,73.83,,,,,,,,,1,2.0,Appartement,74.0,3.0,,,,,,2.357807,48.867386
301,2020-1427058,2020-06-10,1,Vente,630000.0,12.0,,RUE VILLEDO,9824,75001.0,75101,Paris 1er Arrondissement,75,,,75101000AW0043,,,11,,,,,,,,,,1,2.0,Appartement,48.0,1.0,,,,,,2.3359,48.866555
302,2020-1427060,2020-06-12,1,Vente,485000.0,6.0,,RUE DU FOIN,3698,75003.0,75103,Paris 3e Arrondissement,75,,,75103000AN0074,,,57,32.45,,,,,,,,,1,2.0,Appartement,31.0,3.0,,,,,,2.365255,48.857127
303,2020-1427061,2020-06-16,1,Vente,390000.0,26.0,,RUE MONTORGUEIL,6520,75001.0,75101,Paris 1er Arrondissement,75,,,75101000AQ0050,,,10,36.04,,,,,,,,,1,2.0,Appartement,40.0,2.0,,,,,,2.346646,48.863619
304,2020-1427072,2020-06-05,1,Vente,101080.0,168.0,,RUE DU TEMPLE,9191,75003.0,75103,Paris 3e Arrondissement,75,,,75103000AG0058,,,12,8.07,,,,,,,,,1,2.0,Appartement,9.0,1.0,,,,,,2.36172,48.86632
305,2020-1427076,2020-06-22,1,Vente,572000.0,66.0,,RUE SAINT HONORE,8635,75001.0,75101,Paris 1er Arrondissement,75,,,75101000AT0041,,,14,39.88,,,,,,,,,1,2.0,Appartement,22.0,1.0,,,,,,2.343547,48.861417
306,2020-1427077,2020-06-19,1,Vente,486210.0,23.0,,RUE DE BERNE,0900,75008.0,75108,Paris 8e Arrondissement,75,,,75108000CE0033,,,3,39.35,,,,,,,,,1,2.0,Appartement,41.0,2.0,,,,,,2.322706,48.88113
307,2020-1427079,2020-06-05,1,Vente,10000.0,140.0,,RUE DE RIVOLI,8249,75001.0,75101,Paris 1er Arrondissement,75,,,75101000AT0102,,,33,8.78,,,,,,,,,1,2.0,Appartement,17.0,1.0,,,,,,2.343111,48.860429
308,2020-1427083,2020-06-10,1,Vente,2660000.0,15.0,,RUE DU LOUVRE,5825,75001.0,75101,Paris 1er Arrondissement,75,,,75101000AR0068,,,17,156.03,,,,,,,,,1,2.0,Appartement,136.0,3.0,,,,,,2.341748,48.863545
309,2020-1427085,2020-06-18,1,Vente,248000.0,62.0,,RUE DE MONCEAU,6419,75008.0,75108,Paris 8e Arrondissement,75,,,75108000CH0021,,,19,21.37,,,,,,,,,1,2.0,Appartement,35.0,1.0,,,,,,2.313024,48.878442
310,2020-1427086,2020-06-18,1,Vente,2328000.0,36.0,,AV MATIGNON,6178,75008.0,75108,Paris 8e Arrondissement,75,,,75108000BK0067,,,46,153.39,,,,,,,,,1,2.0,Appartement,160.0,5.0,,,,,,2.314915,48.87226
311,2020-1427089,2020-06-18,1,Vente,300000.0,5.0,,RUE PORTEFOIN,7729,75003.0,75103,Paris 3e Arrondissement,75,,,75103000AI0026,,,15,22.78,,,,,,,,,1,2.0,Appartement,21.0,1.0,,,,,,2.359914,48.863446
312,2020-1427093,2020-06-26,1,Vente,365000.0,15.0,,RUE DU JOUR,5033,75001.0,75101,Paris 1er Arrondissement,75,,,75101000AR0105,,,10,25.04,,,,,,,,,1,2.0,Appartement,25.0,2.0,,,,,,2.344371,48.863807
313,2020-1427094,2020-06-25,1,Vente,720000.0,101.0,,BD HAUSSMANN,4485,75008.0,75108,Paris 8e Arrondissement,75,,,75108000CJ0074,,,15,,,,,,,,,,1,2.0,Appartement,84.0,3.0,,,,,,2.317706,48.87473
314,2020-1427095,2020-06-24,1,Vente,493280.0,148.0,,RUE SAINT HONORE,8635,75001.0,75101,Paris 1er Arrondissement,75,,,75101000AS0072,,,27,,,,,,,,,,1,2.0,Appartement,38.0,1.0,,,,,,2.340441,48.86202
315,2020-1427109,2020-06-17,1,Vente,145000.0,26.0,,RUE RAMBUTEAU,8009,75003.0,75103,Paris 3e Arrondissement,75,,,75103000AT0017,,,58,17.05,,,,,,,,,1,2.0,Appartement,22.0,1.0,,,,,,2.35419,48.861234
316,2020-1427110,2020-06-12,1,Vente,290000.0,51.0,,BD BEAUMARCHAIS,0783,75003.0,75103,Paris 3e Arrondissement,75,,,75103000AN0051,,,40,,,,,,,,,,1,2.0,Appartement,20.0,1.0,,,,,,2.367617,48.857043
317,2020-1427111,2020-06-08,1,Vente,331650.0,50.0,,RUE DU VERTBOIS,9711,75003.0,75103,Paris 3e Arrondissement,75,,,75103000AB0080,,,29,22.25,,,,,,,,,1,2.0,Appartement,16.0,1.0,,,,,,2.357106,48.867353
318,2020-1427114,2020-06-08,1,Vente,240000.0,62.0,,RUE CHAPON,1771,75003.0,75103,Paris 3e Arrondissement,75,,,75103000AV0054,,,20,20.49,,,,,,,,,1,2.0,Appartement,22.0,1.0,,,,,,2.353517,48.864291
319,2020-1427115,2020-06-16,1,Vente,1511375.0,18.0,,RUE DE BERRI,0904,75008.0,75108,Paris 8e Arrondissement,75,,,75108000BF0065,,,276,109.45,,,,,,,,,1,2.0,Appartement,110.0,3.0,,,,,,2.305618,48.872708
320,2020-1427122,2020-06-17,1,Vente,131400.0,7.0,,RUE GRENETA,4318,75003.0,75103,Paris 3e Arrondissement,75,,,75103000AD0068,,,88,9.59,,,,,,,,,1,2.0,Appartement,10.0,1.0,,,,,,2.352768,48.865209
321,2020-1427123,2020-07-01,1,Vente,148000.0,105.0,,RUE VIEILLE DU TEMPLE,9783,75003.0,75103,Paris 3e Arrondissement,75,,,75103000AQ0062,,,4,11.81,,,,,,,,,1,2.0,Appartement,12.0,1.0,,,,,,2.361559,48.860524
322,2020-1427125,2020-06-18,1,Vente,768200.0,56.0,,RUE CHAPON,1771,75003.0,75103,Paris 3e Arrondissement,75,,,75103000AV0028,,,520,43.36,,,,,,,,,1,2.0,Appartement,48.0,2.0,,,,,,2.353785,48.864262
323,2020-1427130,2020-06-25,1,Vente,1247780.0,10.0,,RUE CAFFARELLI,1413,75003.0,75103,Paris 3e Arrondissement,75,,,75103000AH0098,,,6,78.83,,,,,,,,,1,2.0,Appartement,16.0,1.0,,,,,,2.362104,48.863618
324,2020-1427133,2020-06-09,1,Vente,5000.0,1.0,,RUE DES PYRAMIDES,7902,75001.0,75101,Paris 1er Arrondissement,75,,,75101000AX0010,,,207,,,,,,,,,,1,2.0,Appartement,43.0,3.0,,,,,,2.332096,48.864313
325,2020-1427139,2020-07-01,1,Vente,270000.0,9.0,,RUE HEROLD,4619,75001.0,75101,Paris 1er Arrondissement,75,,,75101000AR0010,,,5,23.05,,,,,,,,,1,2.0,Appartement,27.0,2.0,,,,,,2.341301,48.864895
326,2020-1427150,2020-06-30,1,Vente,420000.0,5.0,,RUE BLONDEL,1021,75003.0,75103,Paris 3e Arrondissement,75,,,75103000AB0123,,,14,36.83,,,,,,,,,1,2.0,Appartement,37.0,2.0,,,,,,2.354524,48.868451
327,2020-1427152,2020-06-15,1,Vente,3100000.0,24.0,,PL DAUPHINE,2594,75001.0,75101,Paris 1er Arrondissement,75,,,75101000AL0003,,,27,51.0,,,,,,,,,1,2.0,Appartement,52.0,2.0,,,,,,2.342069,48.856955
328,2020-1427161,2020-06-23,1,Vente,703100.0,43.0,,RUE VOLTA,9905,75003.0,75103,Paris 3e Arrondissement,75,,,75103000AC0009,,,118,47.71,,,,,,,,,1,2.0,Appartement,48.0,3.0,,,,,,2.357844,48.866757
329,2020-1427164,2020-06-20,1,Vente,243000.0,42.0,,RUE DE RICHELIEU,8212,75001.0,75101,Paris 1er Arrondissement,75,,,75101000AV0056,,,9,,,,,,,,,,1,2.0,Appartement,19.0,1.0,,,,,,2.337151,48.865913
330,2020-1427170,2020-06-19,1,Vente,543847.0,5.0,,RUE ANDRIEUX,0337,75008.0,75108,Paris 8e Arrondissement,75,,,75108000CF0028,,,45,49.52,,,,,,,,,1,2.0,Appartement,41.0,2.0,,,,,,2.31882,48.880947
331,2020-1427173,2020-07-02,1,Vente,1000.0,44.0,,RUE DE MONTMORENCY,6517,75003.0,75103,Paris 3e Arrondissement,75,,,75103000AV0079,,,102,,,,,,,,,,1,2.0,Appartement,60.0,4.0,,,,,,2.353499,48.863803
332,2020-1427176,2020-06-23,1,Vente,1090000.0,5.0,B,RUE DES HAUDRIETTES,4483,75003.0,75103,Paris 3e Arrondissement,75,,,75103000AT0044,,,15,76.77,,,,,,,,,1,2.0,Appartement,72.0,3.0,,,,,,2.357121,48.861451
333,2020-1427181,2020-06-25,1,Vente,1000.0,25.0,A,RUE DU FAUBOURG SAINT HONORE,3518,75008.0,75108,Paris 8e Arrondissement,75,,,75108000BP0022,,,103,,,,,,,,,,1,2.0,Appartement,14.0,1.0,,,,,,2.320723,48.868384
334,2020-1427182,2020-06-16,1,Vente,735000.0,6.0,,RUE DE POITOU,7572,75003.0,75103,Paris 3e Arrondissement,75,,,75103000AK0054,,,4,46.67,,,,,,,,,1,2.0,Appartement,50.0,3.0,,,,,,2.364289,48.861504
335,2020-1427186,2020-06-30,1,Vente,430000.0,5.0,,RUE AU MAIRE,5927,75003.0,75103,Paris 3e Arrondissement,75,,,75103000AE0179,,,1034,,,,,,,,,,1,2.0,Appartement,37.0,1.0,,,,,,2.357243,48.864202
336,2020-1427187,2020-06-24,1,Vente,194880.0,19.0,,BD DES BATIGNOLLES,0719,75008.0,75108,Paris 8e Arrondissement,75,,,75108000CD0047,,,17,16.66,,,,,,,,,1,2.0,Appartement,19.0,1.0,,,,,,2.325299,48.882661
337,2020-1427188,2020-06-29,1,Vente,590000.0,19.0,,RUE CHAPON,1771,75003.0,75103,Paris 3e Arrondissement,75,,,75103000AS0045,,,42,51.96,,,,,,,,,1,2.0,Appartement,52.0,2.0,,,,,,2.355545,48.863361
338,2020-1427189,2020-06-18,1,Vente,20000.0,26.0,,RUE DU MONT THABOR,6537,75001.0,75101,Paris 1er Arrondissement,75,,,75101000BD0034,,,21,5.69,,,,,,,,,1,2.0,Appartement,10.0,1.0,,,,,,2.327284,48.866398
339,2020-1427196,2020-06-25,1,Vente,935000.0,32.0,,RUE DU MONT THABOR,6537,75001.0,75101,Paris 1er Arrondissement,75,,,75101000BD0031,,,7,57.89,,,,,,,,,1,2.0,Appartement,57.0,2.0,,,,,,2.326876,48.866518
340,2020-1427199,2020-06-30,1,Vente,640000.0,245.0,,RUE SAINT MARTIN,8694,75003.0,75103,Paris 3e Arrondissement,75,,,75103000AD0082,,,11,52.3,,,,,,,,,1,2.0,Appartement,52.0,3.0,,,,,,2.353218,48.8659
341,2020-1427200,2020-07-09,1,Vente,314150.0,23.0,,RUE DE RICHELIEU,8212,75001.0,75101,Paris 1er Arrondissement,75,,,75101000AX0056,,,20,24.32,,,,,,,,,1,2.0,Appartement,24.0,1.0,,,,,,2.33597,48.864847
342,2020-1427202,2020-06-30,1,Vente,458000.0,34.0,,RUE DE MONTMORENCY,6517,75003.0,75103,Paris 3e Arrondissement,75,,,75103000AV0073,,,7,34.2,,,,,,,,,1,2.0,Appartement,36.0,2.0,,,,,,2.354272,48.863529
343,2020-1427204,2020-07-07,1,Vente,19440.0,24.0,,AV DE FRIEDLAND,3868,75008.0,75108,Paris 8e Arrondissement,75,,,75108000AV0023,,,49,,,,,,,,,,1,2.0,Appartement,50.0,2.0,,,,,,2.300115,48.87463
344,2020-1427220,2020-06-25,1,Vente,350000.0,16.0,,RUE DE VEZELAY,9723,75008.0,75108,Paris 8e Arrondissement,75,,,75108000CH0026,,,19,33.4,,,,,,,,,1,2.0,Appartement,34.0,2.0,,,,,,2.31407,48.878705
345,2020-1427227,2020-07-06,1,Vente,350000.0,97.0,,RUE VIEILLE DU TEMPLE,9783,75003.0,75103,Paris 3e Arrondissement,75,,,75103000AQ0055,,,7,33.51,,,,,,,,,1,2.0,Appartement,32.0,2.0,,,,,,2.361125,48.860313
346,2020-1427228,2020-07-17,1,Vente,1400000.0,26.0,,RUE DE LA BIENFAISANCE,0960,75008.0,75108,Paris 8e Arrondissement,75,,,75108000CI0034,,,113,106.33,,,,,,,,,1,2.0,Appartement,60.0,2.0,,,,,,2.316682,48.876771
347,2020-1427229,2020-07-07,1,Vente,650000.0,15.0,,RUE DE SAINT PETERSBOURG,8724,75008.0,75108,Paris 8e Arrondissement,75,,,75108000CD0017,,,18,50.02,,,,,,,,,1,2.0,Appartement,49.0,2.0,,,,,,2.324875,48.881216
348,2020-1427230,2020-06-25,1,Vente,177000.0,25.0,,RUE TRONCHET,9470,75008.0,75108,Paris 8e Arrondissement,75,,,75108000BS0077,,,94,17.1,,,,,,,,,1,2.0,Appartement,145.0,5.0,,,,,,2.325865,48.872635
349,2020-1427231,2020-07-09,1,Vente,840820.0,11.0,,RUE DE PICARDIE,7395,75003.0,75103,Paris 3e Arrondissement,75,,,75103000AH0089,,,19,53.93,,,,,,,,,1,2.0,Appartement,64.0,3.0,,,,,,2.362264,48.863546
350,2020-1427246,2020-05-28,1,Vente,890105.0,27.0,,RUE DE RICHELIEU,8212,75001.0,75101,Paris 1er Arrondissement,75,,,75101000AX0058,,,11,59.21,,,,,,,,,1,2.0,Appartement,61.0,2.0,,,,,,2.336163,48.864981
351,2020-1427248,2020-07-21,1,Vente,5500.0,53.0,,RUE FRANCOIS 1ER,3814,75008.0,75108,Paris 8e Arrondissement,75,,,75108000AP0020,,,230,2.2,,,,,,,,,1,2.0,Appartement,62.0,2.0,,,,,,2.301629,48.869515
352,2020-1427255,2020-07-10,1,Vente,280000.0,66.0,,RUE DE SAINTONGE,8716,75003.0,75103,Paris 3e Arrondissement,75,,,75103000AJ0003,,,61,18.86,,,,,,,,,1,2.0,Appartement,22.0,1.0,,,,,,2.365531,48.864066
353,2020-1427256,2020-06-29,1,Vente,425000.0,17.0,,RUE DU ROULE,8397,75001.0,75101,Paris 1er Arrondissement,75,,,75101000AT0091,,,12,35.46,,,,,,,,,1,2.0,Appartement,30.0,3.0,,,,,,2.343624,48.86097
354,2020-1427258,2020-07-07,1,Vente,950000.0,57.0,,RUE DE RIVOLI,8249,75001.0,75101,Paris 1er Arrondissement,75,,,75101000AN0017,,,14,117.44,,,,,,,,,1,2.0,Appartement,118.0,4.0,,,,,,2.345829,48.859094
355,2020-1427260,2020-07-16,1,Vente,270000.0,75.0,,RUE SAINT HONORE,8635,75001.0,75101,Paris 1er Arrondissement,75,,,75101000AT0085,,,10,,,,,,,,,,1,2.0,Appartement,23.0,1.0,,,,,,2.344096,48.861015
356,2020-1427263,2020-07-16,1,Vente,516500.0,34.0,,RUE DE RICHELIEU,8212,75001.0,75101,Paris 1er Arrondissement,75,,,75101000AV0052,,,12,30.4,,,,,,,,,1,2.0,Appartement,35.0,1.0,,,,,,2.337007,48.865564
357,2020-1427269,2020-07-16,1,Vente,420000.0,14.0,,RUE DE L ARCADE,0411,75008.0,75108,Paris 8e Arrondissement,75,,,75108000BS0136,,,9,40.17,,,,,,,,,1,2.0,Appartement,39.0,2.0,,,,,,2.323937,48.871607
358,2020-1427271,2020-07-02,1,Vente,1150000.0,4.0,,RUE DE COPENHAGUE,2306,75008.0,75108,Paris 8e Arrondissement,75,,,75108000CF0032,,,49,98.4,,,,,,,,,1,2.0,Appartement,78.0,4.0,,,,,,2.320738,48.880585
359,2020-1427272,2020-07-02,1,Vente,1210000.0,7.0,,RUE CHAMBIGES,1701,75008.0,75108,Paris 8e Arrondissement,75,,,75108000AN0067,,,8,70.77,,,,,,,,,1,2.0,Appartement,71.0,3.0,,,,,,2.303545,48.866999
360,2020-1427275,2020-06-26,1,Vente,338000.0,15.0,,RUE DE BEARN,0756,75003.0,75103,Paris 3e Arrondissement,75,,,75103000AN0039,,,53,24.23,,,,,,,,,1,2.0,Appartement,22.0,1.0,,,,,,2.366228,48.85777
361,2020-1427278,2020-07-10,1,Vente,456500.0,63.0,,BD DE COURCELLES,2386,75008.0,75108,Paris 8e Arrondissement,75,,,75108000AY0034,,,6,32.55,,,,,,,,,1,2.0,Appartement,32.0,1.0,,,,,,2.302383,48.878695
362,2020-1427279,2020-07-09,1,Vente,555000.0,21.0,,AV HOCHE,4645,75008.0,75108,Paris 8e Arrondissement,75,,,75108000BC0003,,,36,60.03,,,,,,,,,1,2.0,Appartement,65.0,3.0,,,,,,2.302711,48.876549
363,2020-1427282,2020-07-08,1,Vente,576000.0,19.0,,RUE DU ROULE,8397,75001.0,75101,Paris 1er Arrondissement,75,,,75101000AT0090,,,11,42.6,,,,,,,,,1,2.0,Appartement,55.0,1.0,,,,,,2.343736,48.860919
364,2020-1427290,2020-06-30,1,Vente,36000.0,18.0,,AV DE FRIEDLAND,3868,75008.0,75108,Paris 8e Arrondissement,75,,,75108000AV0024,,,117,,,,,,,,,,1,2.0,Appartement,24.0,1.0,,,,,,2.300368,48.87479
365,2020-1427293,2020-07-23,1,Vente,350000.0,66.0,,RUE CHAPON,1771,75003.0,75103,Paris 3e Arrondissement,75,,,75103000AV0058,,,7,25.01,,,,,,,,,1,2.0,Appartement,25.0,1.0,,,,,,2.35321,48.86427
366,2020-1427298,2020-07-20,1,Vente,2220000.0,16.0,,RUE DEBELLEYME,2616,75003.0,75103,Paris 3e Arrondissement,75,,,75103000AL0027,,,13,,,,,,,,,,1,2.0,Appartement,98.0,5.0,,,,,,2.363667,48.861176
367,2020-1427301,2020-07-24,1,Vente,450000.0,40.0,,RUE SAINT HONORE,8635,75001.0,75101,Paris 1er Arrondissement,75,,,75101000AT0159,,,15,39.85,,,,,,,,,1,2.0,Appartement,41.0,2.0,,,,,,2.34454,48.86124
368,2020-1427313,2020-07-10,1,Vente,1287800.0,245.0,,RUE SAINT MARTIN,8694,75003.0,75103,Paris 3e Arrondissement,75,,,75103000AD0082,,,8,88.15,,,,,,,,,1,2.0,Appartement,86.0,3.0,,,,,,2.353218,48.8659
369,2020-1427314,2020-07-09,1,Vente,1116350.0,2.0,,RUE COURTALON,2400,75001.0,75101,Paris 1er Arrondissement,75,,,75101000AO0055,,,32,,,,,,,,,,1,2.0,Appartement,30.0,2.0,,,,,,2.347715,48.859675
370,2020-1427315,2020-07-27,1,Vente,600000.0,76.0,,AV DES CHAMPS ELYSEES,1733,75008.0,75108,Paris 8e Arrondissement,75,,,75108000BG0009,,,240,40.02,,,,,,,,,1,2.0,Appartement,40.0,1.0,,,,,,2.304678,48.871669
371,2020-1427323,2020-07-24,1,Vente,270000.0,1.0,,RUE DES PYRAMIDES,7902,75001.0,75101,Paris 1er Arrondissement,75,,,75101000AX0010,,,120,18.51,,,,,,,,,1,2.0,Appartement,20.0,1.0,,,,,,2.332096,48.864313
372,2020-1427326,2020-07-09,1,Vente,2930000.0,28.0,,RUE MARBEUF,5993,75008.0,75108,Paris 8e Arrondissement,75,,,75108000AQ0008,,,11,191.53,,,,,,,,,1,2.0,Appartement,198.0,6.0,,,,,,2.304931,48.869093
373,2020-1427332,2020-07-29,1,Vente,308569.1,13.0,,RUE NOTRE DAME DE NAZARETH,6834,75003.0,75103,Paris 3e Arrondissement,75,,,75103000AF0092,,,42,73.7,,,,,,,,,1,2.0,Appartement,72.0,3.0,,,,,,2.360208,48.866949
374,2020-1427335,2020-07-10,1,Vente,320000.0,1.0,,BD DES FILLES DU CALVAIRE,3642,75003.0,75103,Paris 3e Arrondissement,75,,,75103000AK0030,,,9,23.76,,,,,,,,,1,2.0,Appartement,24.0,1.0,,,,,,2.366915,48.861098
375,2020-1427336,2020-07-28,1,Vente,605000.0,22.0,,AV DE L OPERA,6904,75001.0,75101,Paris 1er Arrondissement,75,,,75101000AW0083,,,43,41.42,,,,,,,,,1,2.0,Appartement,48.0,1.0,,,,,,2.334923,48.866197
376,2020-1427339,2020-07-23,1,Vente,529616.0,27.0,,RUE DE BERNE,0900,75008.0,75108,Paris 8e Arrondissement,75,,,75108000CE0035,,,8,40.41,,,,,,,,,1,2.0,Appartement,40.0,2.0,,,,,,2.322525,48.88133
377,2020-1427349,2020-07-09,1,Vente,3600000.0,49.0,,AV MONTAIGNE,6450,75008.0,75108,Paris 8e Arrondissement,75,,,75108000AQ0064,,,16,169.26,,,,,,,,,1,2.0,Appartement,141.0,4.0,,,,,,2.307158,48.867864
378,2020-1427353,2020-07-30,1,Vente,500.0,14.0,,AV MATIGNON,6178,75008.0,75108,Paris 8e Arrondissement,75,,,75108000BJ0036,,,39,,,,,,,,,,1,2.0,Appartement,70.0,2.0,,,,,,2.313738,48.870624
379,2020-1427358,2020-07-16,1,Vente,1340000.0,11.0,,RUE LORD BYRON,5751,75008.0,75108,Paris 8e Arrondissement,75,,,75108000AV0046,,,23,95.02,,,,,,,,,1,2.0,Appartement,95.0,3.0,,,,,,2.299858,48.873192
380,2020-1427362,2020-07-30,1,Vente,15000.0,29.0,,RUE D ANJOU,0351,75008.0,75108,Paris 8e Arrondissement,75,,,75108000BM0066,,,31,,,,,,,,,,1,2.0,Appartement,32.0,1.0,,,,,,2.321562,48.871504
381,2020-1427365,2020-07-24,1,Vente,404570.0,268.0,,RUE DU FAUBOURG SAINT HONORE,3518,75008.0,75108,Paris 8e Arrondissement,75,,,75108000AY0008,,,10,27.03,,,,,,,,,1,2.0,Appartement,35.0,2.0,,,,,,2.299366,48.877814
382,2020-1427366,2020-07-13,1,Vente,331990.0,36.0,,RUE SAINT DENIS,8525,75001.0,75101,Paris 1er Arrondissement,75,,,75101000AO0019,,,12,26.38,,,,,,,,,1,2.0,Appartement,32.0,1.0,,,,,,2.348588,48.860276
383,2020-1427367,2020-06-18,1,Vente,768490.0,10.0,,RUE COQUILLIERE,2318,75001.0,75101,Paris 1er Arrondissement,75,,,75101000AR0094,,,110,71.16,,,,,,,,,1,2.0,Appartement,73.0,3.0,,,,,,2.343699,48.863762
384,2020-1427368,2020-08-03,1,Vente,570000.0,233.0,,RUE SAINT MARTIN,8694,75003.0,75103,Paris 3e Arrondissement,75,,,75103000AD0057,,,26,46.73,,,,,,,,,1,2.0,Appartement,45.0,3.0,,,,,,2.35297,48.864991
385,2020-1427370,2020-07-17,1,Vente,593000.0,119.0,,RUE SAINT DENIS,8525,75001.0,75101,Paris 1er Arrondissement,75,,,75101000AQ0095,,,12,51.8,,,,,,,,,1,2.0,Appartement,51.0,1.0,,,,,,2.349162,48.863042
386,2020-1427371,2020-07-30,1,Vente,279000.0,4.0,,RUE DU MARCHE ST HONORE,6034,75001.0,75101,Paris 1er Arrondissement,75,,,75101000AY0053,,,62,18.69,,,,,,,,,1,2.0,Appartement,18.0,1.0,,,,,,2.331276,48.865657
387,2020-1427376,2020-07-20,1,Vente,1500.0,4.0,,RUE DE PICARDIE,7395,75003.0,75103,Paris 3e Arrondissement,75,,,75103000AH0083,,,26,,,,,,,,,,1,2.0,Appartement,45.0,2.0,,,,,,2.362402,48.863194
388,2020-1427381,2020-07-08,1,Vente,236000.0,15.0,,RUE DU GRENIER SAINT LAZARE,4320,75003.0,75103,Paris 3e Arrondissement,75,,,75103000AU0081,,,6027,27.09,,,,,,,,,1,2.0,Appartement,27.0,1.0,,,,,,2.352132,48.861646
389,2020-1427394,2020-07-28,1,Vente,296755.0,6.0,,RUE CROIX DES PETITS CHAMPS,2453,75001.0,75101,Paris 1er Arrondissement,75,,,75101000AS0024,,,13,19.2,,,,,,,,,1,2.0,Appartement,20.0,1.0,,,,,,2.339547,48.862523
390,2020-1427400,2020-07-22,1,Vente,317853.0,30.0,,RUE SAINTE ANNE,8534,75001.0,75101,Paris 1er Arrondissement,75,,,75101000AW0046,,,10,22.67,,,,,,,,,1,2.0,Appartement,35.0,1.0,,,,,,2.335733,48.866376
391,2020-1427401,2020-07-22,1,Vente,265000.0,12.0,,RUE NOTRE DAME DE NAZARETH,6834,75003.0,75103,Paris 3e Arrondissement,75,,,75103000AF0047,,,4,31.57,,,,,,,,,1,2.0,Appartement,36.0,2.0,,,,,,2.361168,48.867229
392,2020-1427411,2020-07-28,1,Vente,170000.0,12.0,,RUE CAFFARELLI,1413,75003.0,75103,Paris 3e Arrondissement,75,,,75103000AH0097,,,25,12.48,,,,,,,,,1,2.0,Appartement,17.0,1.0,,,,,,2.362182,48.863657
393,2020-1427414,2020-07-23,1,Vente,470000.0,54.0,,RUE DE L ARBRE SEC,0407,75001.0,75101,Paris 1er Arrondissement,75,,,75101000AT0112,,,14,,,,,,,,,,1,2.0,Appartement,19.0,1.0,,,,,,2.342881,48.861081
394,2020-1427416,2020-07-17,1,Vente,702000.0,138.0,,BD HAUSSMANN,4485,75008.0,75108,Paris 8e Arrondissement,75,,,75108000CI0088,,,30,,,,,,,,,,1,2.0,Appartement,23.0,1.0,,,,,,2.313591,48.875512
395,2020-1427417,2020-07-16,1,Vente,385000.0,39.0,,RUE D ARTOIS,0487,75008.0,75108,Paris 8e Arrondissement,75,,,75108000BF0030,,,22,25.4,,,,,,,,,1,2.0,Appartement,28.0,1.0,,,,,,2.305499,48.874098
396,2020-1427421,2020-08-05,1,Vente,118000.0,39.0,,RUE DES GRAVILLIERS,4302,75003.0,75103,Paris 3e Arrondissement,75,,,75103000AS0004,,,14,11.2,,,,,,,,,1,2.0,Appartement,10.0,1.0,,,,,,2.355544,48.863993
397,2020-1427422,2020-08-06,1,Vente,330000.0,59.0,,BD DE COURCELLES,2386,75008.0,75108,Paris 8e Arrondissement,75,,,75108000AY0036,,,99,32.24,,,,,,,,,1,2.0,Appartement,35.0,1.0,,,,,,2.302707,48.878781
398,2020-1427432,2020-07-28,1,Vente,567000.0,30.0,,RUE DE WASHINGTON,9942,75008.0,75108,Paris 8e Arrondissement,75,,,75108000BF0024,,,27,43.76,,,,,,,,,1,2.0,Appartement,45.0,2.0,,,,,,2.303693,48.873245
399,2020-1427450,2020-07-30,1,Vente,12000.0,22.0,,PL VENDOME,9653,75001.0,75101,Paris 1er Arrondissement,75,,,75101000AZ0003,,,16,,,,,,,,,,1,2.0,Appartement,249.0,6.0,,,,,,2.330969,48.867657
400,2020-1427452,2020-07-31,1,Vente,390000.0,47.0,,RUE CHARLOT,1880,75003.0,75103,Paris 3e Arrondissement,75,,,75103000AH0070,,,8,,,,,,,,,,1,2.0,Appartement,32.0,1.0,,,,,,2.36275,48.863288
401,2020-1427453,2020-07-30,1,Vente,2050000.0,6.0,,RUE SAINT FLORENTIN,8611,75001.0,75101,Paris 1er Arrondissement,75,,,75101000BD0005,,,11,,,,,,,,,,1,2.0,Appartement,100.0,3.0,,,,,,2.324386,48.867273
402,2020-1427460,2020-08-11,1,Vente,235000.0,36.0,,RUE DU VERTBOIS,9711,75003.0,75103,Paris 3e Arrondissement,75,,,75103000AB0072,,,7,,,,,,,,,,1,2.0,Appartement,21.0,1.0,,,,,,2.358005,48.867159
403,2020-1427471,2020-07-31,1,Vente,9000000.0,81.0,,RUE DES ARCHIVES,0420,75003.0,75103,Paris 3e Arrondissement,75,,,75103000AI0024,,,14,,,,,,,,,,1,2.0,Appartement,245.0,6.0,,,,,,2.360278,48.863259
404,2020-1427474,2020-08-06,1,Vente,421000.0,14.0,,RUE LINCOLN,5692,75008.0,75108,Paris 8e Arrondissement,75,,,75108000AR0025,,,218,25.28,,,,,,,,,1,2.0,Appartement,26.0,1.0,,,,,,2.303419,48.870407
405,2020-1427475,2020-08-05,1,Vente,190000.0,75.0,,RUE SAINT-HONORE,8635,75001.0,75101,Paris 1er Arrondissement,75,,,75101000AT0085,,,12,,,,,,,,,,1,2.0,Appartement,19.0,1.0,,,,,,2.344096,48.861015
406,2020-1427482,2020-08-07,1,Vente,238000.0,20.0,,RUE RAMBUTEAU,8009,75003.0,75103,Paris 3e Arrondissement,75,,,75103000AT0027,,,45,,,,,,,,,,1,2.0,Appartement,14.0,1.0,,,,,,2.35474,48.861073
407,2020-1427484,2020-08-25,1,Vente,275000.0,32.0,,RUE PASQUIER,7082,75008.0,75108,Paris 8e Arrondissement,75,,,75108000BS0048,,,15,,,,,,,,,,1,2.0,Appartement,16.0,1.0,,,,,,2.323776,48.873236
408,2020-1427486,2020-08-05,1,Vente,407200.0,22.0,B,RUE DUPETIT-THOUARS,2997,75003.0,75103,Paris 3e Arrondissement,75,,,75103000AG0110,,,69,,,,,,,,,,1,2.0,Appartement,28.0,2.0,,,,,,2.361632,48.865995
409,2020-1427487,2020-08-25,1,Vente,280000.0,14.0,,RUE CAFFARELLI,1413,75003.0,75103,Paris 3e Arrondissement,75,,,75103000AH0091,,,41,,,,,,,,,,1,2.0,Appartement,21.0,1.0,,,,,,2.362313,48.863664
410,2020-1427489,2020-08-18,1,Vente,1549120.0,21.0,,AV HOCHE,4645,75008.0,75108,Paris 8e Arrondissement,75,,,75108000BC0003,,,10,,,,,,,,,,1,2.0,Appartement,152.0,6.0,,,,,,2.302711,48.876549
411,2020-1427490,2020-07-31,1,Vente,180000.0,27.0,,RUE AU MAIRE,5927,75003.0,75103,Paris 3e Arrondissement,75,,,75103000AE0107,,,9,,,,,,,,,,1,2.0,Appartement,17.0,1.0,,,,,,2.355971,48.864537
412,2020-1427491,2020-08-28,1,Vente,325000.0,62.0,,RUE DE TURENNE,9506,75003.0,75103,Paris 3e Arrondissement,75,,,75103000AM0059,,,30,,,,,,,,,,1,2.0,Appartement,21.0,1.0,,,,,,2.364855,48.859318
413,2020-1427496,2020-08-31,1,Vente,750000.0,39.0,,RUE NOTRE-DAME DE NAZARETH,6834,75003.0,75103,Paris 3e Arrondissement,75,,,75103000AB0075,,,9,52.98,,,,,,,,,1,2.0,Appartement,52.0,2.0,,,,,,2.357807,48.867386
414,2020-1427500,2020-08-31,1,Vente,200000.0,154.0,,RUE DU TEMPLE,9191,75003.0,75103,Paris 3e Arrondissement,75,,,75103000AI0003,,,21,,,,,,,,,,1,2.0,Appartement,20.0,1.0,,,,,,2.359516,48.864397
415,2020-1427507,2020-09-04,1,Vente,307692.3,68.0,,RUE NOTRE-DAME DE NAZARETH,6834,75003.0,75103,Paris 3e Arrondissement,75,,,75103000AB0056,,,8,,,,,,,,,,1,2.0,Appartement,12.0,1.0,,,,,,2.356388,48.867992
416,2020-1427510,2020-09-01,1,Vente,166000.0,5.0,,RUE JEAN JACQUES ROUSSEAU,4901,75001.0,75101,Paris 1er Arrondissement,75,,,75101000AS0017,,,3,10.83,,,,,,,,,1,2.0,Appartement,18.0,1.0,,,,,,2.339872,48.862374
417,2020-1427512,2020-08-31,1,Vente,932500.0,112.0,,RUE DE TURENNE,9506,75003.0,75103,Paris 3e Arrondissement,75,,,75103000AJ0020,,,13,66.52,,,,,,,,,1,2.0,Appartement,34.0,3.0,,,,,,2.365027,48.86301
418,2020-1427513,2020-08-31,1,Vente,236510.0,84.0,,RUE DE TURENNE,9506,75003.0,75103,Paris 3e Arrondissement,75,,,75103000AL0044,,,25,,,,,,,,,,1,2.0,Appartement,15.0,1.0,,,,,,2.364917,48.861057
419,2020-1427514,2020-08-25,1,Vente,62000.0,28.0,,RUE D ARTOIS,0487,75008.0,75108,Paris 8e Arrondissement,75,,,75108000BD0009,,,15,,,,,,,,,,1,2.0,Appartement,10.0,1.0,,,,,,2.306525,48.873912
420,2020-1427516,2020-09-03,1,Vente,225000.0,17.0,,RUE DU ROULE,8397,75001.0,75101,Paris 1er Arrondissement,75,,,75101000AT0091,,,14,16.66,,,,,,,,,1,2.0,Appartement,14.0,2.0,,,,,,2.343624,48.86097
421,2020-1427521,2020-09-07,1,Vente,344160.0,15.0,,RUE DU JOUR,5033,75001.0,75101,Paris 1er Arrondissement,75,,,75101000AR0105,,,101,,,,,,,,,,1,2.0,Appartement,27.0,1.0,,,,,,2.344371,48.863807
422,2020-1427527,2020-08-31,1,Vente,836334.0,187.0,,RUE DU TEMPLE,9191,75003.0,75103,Paris 3e Arrondissement,75,,,75103000AF0117,,,51,60.17,,,,,,,,,1,2.0,Appartement,62.0,3.0,,,,,,2.359943,48.865751
423,2020-1427528,2020-08-10,1,Vente,245000.0,5.0,,RUE AUX OURS,6983,75003.0,75103,Paris 3e Arrondissement,75,,,75103000AU0066,,,5,16.4,,,,,,,,,1,2.0,Appartement,17.0,1.0,,,,,,2.351975,48.862945
424,2020-1427530,2020-08-31,1,Vente,804900.0,17.0,,RUE DU BOULOI,1178,75001.0,75101,Paris 1er Arrondissement,75,,,75101000AR0063,,,91,53.98,,,,,,,,,1,2.0,Appartement,54.0,2.0,,,,,,2.340674,48.863943
425,2020-1427532,2020-09-01,1,Vente,1100000.0,42.0,,RUE VOLTA,9905,75003.0,75103,Paris 3e Arrondissement,75,,,75103000AF0136,,,9,82.05,,,,,,,,,1,2.0,Appartement,87.0,3.0,,,,,,2.358169,48.866488
426,2020-1427539,2020-08-28,1,Vente,320000.0,31.0,,RUE TRONCHET,9470,75008.0,75108,Paris 8e Arrondissement,75,,,75108000BS0075,,,125,,,,,,,,,,1,2.0,Appartement,29.0,3.0,,,,,,2.326235,48.873009
427,2020-1427544,2020-08-25,1,Vente,280000.0,18.0,,RUE TRONCHET,9470,75008.0,75108,Paris 8e Arrondissement,75,,,75108000BS0092,,,6,24.04,,,,,,,,,1,2.0,Appartement,22.0,1.0,,,,,,2.326225,48.871971
428,2020-1427547,2020-08-28,1,Vente,436610.0,280.0,,RUE SAINT-HONORE,8635,75001.0,75101,Paris 1er Arrondissement,75,,,75101000AX0015,,,76,32.55,,,,,,,,,1,2.0,Appartement,32.0,1.0,,,,,,2.333196,48.864625
429,2020-1427556,2020-09-11,1,Vente,6500.0,13.0,,RUE DE LABORDE,5200,75008.0,75108,Paris 8e Arrondissement,75,,,75108000BW0045,,,37,,,,,,,,,,1,2.0,Appartement,80.0,4.0,,,,,,2.32155,48.875628
430,2020-1427560,2020-09-11,1,Vente,493000.0,318.0,,RUE SAINT MARTIN,8694,75003.0,75103,Paris 3e Arrondissement,75,,,75103000AB0049,,,41,43.53,,,,,,,,,1,2.0,Appartement,43.0,2.0,,,,,,2.355699,48.86803
431,2020-1427567,2020-08-27,1,Vente,190000.0,44.0,,RUE PASTOURELLE,7094,75003.0,75103,Paris 3e Arrondissement,75,,,75103000AI0043,,,11,,,,,,,,,,1,2.0,Appartement,17.0,2.0,,,,,,2.358714,48.863313
432,2020-1427574,2020-08-28,1,Vente,70000.0,20.0,,RUE DARU,2576,75008.0,75108,Paris 8e Arrondissement,75,,,75108000AZ0018,,,82,,,,,,,,,,1,2.0,Appartement,100.0,4.0,,,,,,2.302837,48.878225
433,2020-1427575,2020-09-14,1,Vente,200780.0,86.0,,RUE LA BOETIE,5194,75008.0,75108,Paris 8e Arrondissement,75,,,75108000BE0042,,,3,15.62,,,,,,,,,1,2.0,Appartement,16.0,1.0,,,,,,2.309534,48.87255
434,2020-1427576,2020-09-15,1,Vente,1781785.0,75.0,,RUE DE MIROMESNIL,6387,75008.0,75108,Paris 8e Arrondissement,75,,,75108000CI0015,,,26,141.96,,,,,,,,,1,2.0,Appartement,149.0,5.0,,,,,,2.315199,48.877456
435,2020-1427577,2020-09-21,1,Vente,1555000.0,22.0,,RUE DE SAINT PETERSBOURG,8724,75008.0,75108,Paris 8e Arrondissement,75,,,75108000CD0074,,,20,133.84,,,,,,,,,1,2.0,Appartement,122.0,4.0,,,,,,2.32563,48.881198
436,2020-1427579,2020-09-10,1,Vente,363735.0,19.0,,RUE BERANGER,0871,75003.0,75103,Paris 3e Arrondissement,75,,,75103000AG0089,,,13,53.1,,,,,,,,,1,2.0,Appartement,53.0,2.0,,,,,,2.362866,48.866045
437,2020-1427580,2020-09-17,1,Vente,2408150.0,20.0,,RUE DARU,2576,75008.0,75108,Paris 8e Arrondissement,75,,,75108000AZ0018,,,17,178.74,,,,,,,,,1,2.0,Appartement,172.0,6.0,,,,,,2.302837,48.878225
438,2020-1427583,2020-09-01,1,Vente,200000.0,16.0,,RUE MONTMARTRE,6513,75001.0,75101,Paris 1er Arrondissement,75,,,75101000AQ0012,,,32,15.4,,,,,,,,,1,2.0,Appartement,17.0,1.0,,,,,,2.345986,48.863887
439,2020-1427587,2020-09-07,1,Vente,459000.0,7.0,,RUE ROGER VERLOMME,8308,75003.0,75103,Paris 3e Arrondissement,75,,,75103000AN0115,,,8,38.17,,,,,,,,,1,2.0,Appartement,56.0,2.0,,,,,,2.366558,48.856547
440,2020-1427588,2020-09-04,1,Vente,229245.0,19.0,,RUE SAINT-DENIS,8525,75001.0,75101,Paris 1er Arrondissement,75,,,75101000AO0053,,,4,16.17,,,,,,,,,1,2.0,Appartement,18.0,1.0,,,,,,2.347678,48.859473
441,2020-1427593,2020-09-11,1,Vente,499000.0,57.0,,RUE MESLAY,6286,75003.0,75103,Paris 3e Arrondissement,75,,,75103000AB0037,,,22,38.07,,,,,,,,,1,2.0,Appartement,10.0,1.0,,,,,,2.356981,48.868097
442,2020-1427594,2020-09-11,2,Vente,505000.0,57.0,,RUE MESLAY,6286,75003.0,75103,Paris 3e Arrondissement,75,,,75103000AB0037,,,33,,,,,,,,,,1,2.0,Appartement,39.0,1.0,,,,,,2.356981,48.868097
443,2020-1427597,2020-09-10,1,Vente,250000.0,75.0,,RUE DES ARCHIVES,0420,75003.0,75103,Paris 3e Arrondissement,75,,,75103000AI0051,,,115,17.41,,,,,,,,,1,2.0,Appartement,17.0,1.0,,,,,,2.359595,48.863031
444,2020-1427598,2020-09-11,1,Vente,490000.0,9.0,,RUE AUX OURS,6983,75003.0,75103,Paris 3e Arrondissement,75,,,75103000AU0034,,,8,38.01,,,,,,,,,1,2.0,Appartement,35.0,2.0,,,,,,2.351847,48.862956
445,2020-1427600,2020-09-14,1,Vente,113500.0,97.0,,BD MALESHERBES,5951,75008.0,75108,Paris 8e Arrondissement,75,,,75108000CH0027,,,39,10.96,,,,,,,,,1,2.0,Appartement,12.0,1.0,,,,,,2.314291,48.878635
446,2020-1427602,2020-09-07,1,Vente,650000.0,34.0,,RUE SAINTE-ANNE,8534,75001.0,75101,Paris 1er Arrondissement,75,,,75101000AW0028,,,16,44.5,,,,,,,,,1,2.0,Appartement,43.0,2.0,,,,,,2.336033,48.866637
447,2020-1427603,2020-09-11,1,Vente,461099.0,104.0,,RUE SAINT-DENIS,8525,75001.0,75101,Paris 1er Arrondissement,75,,,75101000AQ0115,,,4,35.62,,,,,,,,,1,2.0,Appartement,38.0,2.0,,,,,,2.350054,48.863464
448,2020-1427607,2020-09-07,1,Vente,905000.0,47.0,,RUE MESLAY,6286,75003.0,75103,Paris 3e Arrondissement,75,,,75103000AB0032,,,13,85.3,,,,,,,,,1,2.0,Appartement,95.0,4.0,,,,,,2.357774,48.867858
449,2020-1427610,2020-08-27,1,Vente,450000.0,9.0,,RUE DE BRAQUE,1261,75003.0,75103,Paris 3e Arrondissement,75,,,75103000AT0062,,,26,36.36,,,,,,,,,1,2.0,Appartement,15.0,1.0,,,,,,2.356138,48.861052
450,2020-1427612,2020-08-31,1,Vente,411850.0,314.0,,RUE SAINT MARTIN,8694,75003.0,75103,Paris 3e Arrondissement,75,,,75103000AB0147,,,70,26.69,,,,,,,,,1,2.0,Appartement,26.0,1.0,,,,,,2.355635,48.867972
451,2020-1427615,2020-09-21,1,Vente,205264.0,6.0,,RUE DEBELLEYME,2616,75003.0,75103,Paris 3e Arrondissement,75,,,75103000AL0033,,,33,,,,,,,,,,1,2.0,Appartement,20.0,1.0,,,,,,2.364169,48.860564
452,2020-1427620,2020-08-31,1,Vente,529300.0,314.0,,RUE SAINT MARTIN,8694,75003.0,75103,Paris 3e Arrondissement,75,,,75103000AB0147,,,209,,,,,,,,,,1,2.0,Appartement,54.0,3.0,,,,,,2.355635,48.867972
453,2020-1427629,2020-09-28,1,Vente,195000.0,25.0,,RUE DU PONT AUX CHOUX,7605,75003.0,75103,Paris 3e Arrondissement,75,,,75103000AL0042,,,5,33.82,,,,,,,,,1,2.0,Appartement,36.0,2.0,,,,,,2.364855,48.861166
454,2020-1427630,2020-09-24,1,Vente,418400.0,62.0,,RUE MESLAY,6286,75003.0,75103,Paris 3e Arrondissement,75,,,75103000AB0011,,,12,33.56,,,,,,,,,1,2.0,Appartement,23.0,2.0,,,,,,2.355668,48.868684
455,2020-1427631,2020-09-17,1,Vente,650000.0,62.0,,RUE DE TURENNE,9506,75003.0,75103,Paris 3e Arrondissement,75,,,75103000AM0059,,,49,49.26,,,,,,,,,1,2.0,Appartement,50.0,3.0,,,,,,2.364855,48.859318
456,2020-1427634,2020-09-17,1,Vente,357000.0,47.0,,RUE D AMSTERDAM,0300,75008.0,75108,Paris 8e Arrondissement,75,,,75108000BZ0029,,,23,27.95,,,,,,,,,1,2.0,Appartement,27.0,1.0,,,,,,2.326816,48.879851
457,2020-1427635,2020-09-21,1,Vente,1850000.0,92.0,,RUE DE TURENNE,9506,75003.0,75103,Paris 3e Arrondissement,75,,,75103000AK0049,,,24,132.68,,,,,,,,,1,2.0,Appartement,107.0,5.0,,,,,,2.364824,48.861725
458,2020-1427638,2020-09-24,1,Vente,137275.0,8.0,,RUE DU PONT AUX CHOUX,7605,75003.0,75103,Paris 3e Arrondissement,75,,,75103000AK0035,,,46,,,,,,,,,,1,2.0,Appartement,20.0,1.0,,,,,,2.366193,48.861203
459,2020-1427642,2020-09-29,1,Vente,250000.0,41.0,,RUE DE BRETAGNE,1275,75003.0,75103,Paris 3e Arrondissement,75,,,75103000AI0079,,,19,,,,,,,,,,1,2.0,Appartement,15.0,1.0,,,,,,2.361833,48.863058
460,2020-1427644,2020-09-04,1,Vente,1300000.0,134.0,,RUE DE TURENNE,9506,75003.0,75103,Paris 3e Arrondissement,75,,,75103000AH0027,,,12,,,,,,,,,,1,2.0,Appartement,60.0,3.0,,,,,,2.365018,48.864622
461,2020-1427647,2020-09-18,1,Vente,580050.0,3.0,,RUE BALZAC,0652,75008.0,75108,Paris 8e Arrondissement,75,,,75108000AV0044,,,30,38.77,,,,,,,,,1,2.0,Appartement,35.0,1.0,,,,,,2.300045,48.873495
462,2020-1427649,2020-09-10,1,Vente,5000.0,48.0,,RUE CHAPON,1771,75003.0,75103,Paris 3e Arrondissement,75,,,75103000AV0048,,,70,,,,,,,,,,1,2.0,Appartement,29.0,1.0,,,,,,2.354228,48.864165
463,2020-1427655,2020-08-31,1,Vente,2497490.0,29.0,,VIL WAGRAM SAINT HONORE,9936,75008.0,75108,Paris 8e Arrondissement,75,,,75108000AX0028,,,5,159.0,,,,,,,,,1,2.0,Appartement,164.0,6.0,,,,,,2.298197,48.876658
464,2020-1427656,2020-09-30,1,Vente,330000.0,15.0,,RUE MICHEL LE COMTE,6336,75003.0,75103,Paris 3e Arrondissement,75,,,75103000AT0036,,,28,25.58,,,,,,,,,1,2.0,Appartement,26.0,2.0,,,,,,2.355884,48.862155
465,2020-1427660,2020-09-28,1,Vente,510000.0,41.0,,RUE DES PETITS CHAMPS,7348,75001.0,75101,Paris 1er Arrondissement,75,,,75101000AW0029,,,11,37.73,,,,,,,,,1,2.0,Appartement,38.0,1.0,,,,,,2.336053,48.86679
466,2020-1427670,2020-09-28,1,Vente,100.0,28.0,,QUAI DU LOUVRE,5824,75001.0,75101,Paris 1er Arrondissement,75,,,75101000AK0018,,,21,,,,,,,,,,1,2.0,Appartement,110.0,2.0,,,,,,2.340698,48.859094
467,2020-1427673,2020-09-25,2,Vente,230000.0,11.0,,RUE CHATEAUBRIAND,1914,75008.0,75108,Paris 8e Arrondissement,75,,,75108000AU0013,,,517,23.0,,,,,,,,,1,2.0,Appartement,120.0,6.0,,,,,,2.301926,48.873003
468,2020-1427677,2020-09-29,1,Vente,675000.0,29.0,,RUE DES GRAVILLIERS,4302,75003.0,75103,Paris 3e Arrondissement,75,,,75103000AS0009,,,26,,,,,,,,,,1,2.0,Appartement,22.0,1.0,,,,,,2.356157,48.863819
469,2020-1427682,2020-09-09,1,Vente,200000.0,26.0,,AV DE WAGRAM,9933,75008.0,75108,Paris 8e Arrondissement,75,,,75108000AX0066,,,326,24.23,,,,,,,,,1,2.0,Appartement,26.0,1.0,,,,,,2.297517,48.876403
470,2020-1427683,2020-09-29,1,Vente,530000.0,46.0,,RUE DE POITOU,7572,75003.0,75103,Paris 3e Arrondissement,75,,,75103000AK0099,,,2,38.03,,,,,,,,,1,2.0,Appartement,40.0,3.0,,,,,,2.361564,48.861837
471,2020-1427685,2020-09-21,1,Vente,638800.0,6.0,,RUE DU PONT AUX CHOUX,7605,75003.0,75103,Paris 3e Arrondissement,75,,,75103000AK0032,,,9,53.63,,,,,,,,,1,2.0,Appartement,56.0,3.0,,,,,,2.36641,48.861163
472,2020-1427686,2020-09-21,1,Vente,335000.0,14.0,,RUE DE BEAUCE,0761,75003.0,75103,Paris 3e Arrondissement,75,,,75103000AI0082,,,27,26.71,,,,,,,,,1,2.0,Appartement,26.0,1.0,,,,,,2.361344,48.862857
473,2020-1427692,2020-09-23,1,Vente,1343750.0,7.0,,RUE DU CHEVALIER DE ST-GEORGE,1993,75008.0,75108,Paris 8e Arrondissement,75,,,75108000BQ0037,,,5,124.05,,,,,,,,,1,2.0,Appartement,127.0,4.0,,,,,,2.324694,48.868499
474,2020-1427697,2020-09-29,1,Vente,1840000.0,52.0,,BD MALESHERBES,5951,75008.0,75108,Paris 8e Arrondissement,75,,,75108000CI0050,,,108,111.2,,,,,,,,,1,2.0,Appartement,78.0,3.0,,,,,,2.317856,48.877304
475,2020-1427701,2020-09-16,1,Vente,409900.0,35.0,,RUE DE PONTHIEU,7612,75008.0,75108,Paris 8e Arrondissement,75,,,75108000BH0007,,,16,28.73,,,,,,,,,1,2.0,Appartement,30.0,1.0,,,,,,2.307797,48.871018
476,2020-1427702,2020-09-29,1,Vente,1070000.0,11.0,,RUE DU PERCHE,7248,75003.0,75103,Paris 3e Arrondissement,75,,,75103000AQ0050,,,63,60.36,,,,,,,,,1,2.0,Appartement,60.0,2.0,,,,,,2.360825,48.860798
477,2020-1427704,2020-09-24,1,Vente,1100000.0,8.0,,AV FRANKLIN D ROOSEVELT,3824,75008.0,75108,Paris 8e Arrondissement,75,,,75108000BI0079,,,10,79.59,,,,,,,,,1,2.0,Appartement,75.0,3.0,,,,,,2.310326,48.870581
478,2020-1427705,2020-09-28,1,Vente,162000.0,15.0,,RUE DE WASHINGTON,9942,75008.0,75108,Paris 8e Arrondissement,75,,,75108000AU0016,,,104,14.28,,,,,,,,,1,2.0,Appartement,11.0,1.0,,,,,,2.302289,48.872965
479,2020-1427707,2020-10-02,1,Vente,265000.0,13.0,,RUE DE SAINTONGE,8716,75003.0,75103,Paris 3e Arrondissement,75,,,75103000AQ0037,,,7,16.85,,,,,,,,,1,2.0,Appartement,16.0,2.0,,,,,,2.361933,48.861524
480,2020-1427710,2020-09-24,1,Vente,770000.0,2.0,,RUE DES HALLES,4461,75001.0,75101,Paris 1er Arrondissement,75,,,75101000AO0043,,,19,,,,,,,,,,1,2.0,Appartement,41.0,3.0,,,,,,2.347491,48.859191
481,2020-1427713,2020-09-28,1,Vente,246000.0,136.0,,RUE SAINT-HONORE,8635,75001.0,75101,Paris 1er Arrondissement,75,,,75101000AS0047,,,74,10.54,,,,,,,,,1,2.0,Appartement,16.0,1.0,,,,,,2.340772,48.861997
482,2020-1427717,2020-09-25,1,Vente,286000.0,6.0,,RUE DE POITOU,7572,75003.0,75103,Paris 3e Arrondissement,75,,,75103000AK0054,,,10,18.9,,,,,,,,,1,2.0,Appartement,15.0,1.0,,,,,,2.364289,48.861504
483,2020-1427719,2020-09-24,1,Vente,766300.0,16.0,,RUE DEBELLEYME,2616,75003.0,75103,Paris 3e Arrondissement,75,,,75103000AL0027,,,8,54.56,,,,,,,,,1,2.0,Appartement,54.0,2.0,,,,,,2.363667,48.861176
484,2020-1427720,2020-10-02,1,Vente,234000.0,39.0,,RUE DU GENERAL FOY,4041,75008.0,75108,Paris 8e Arrondissement,75,,,75108000CG0080,,,35,23.34,,,,,,,,,1,2.0,Appartement,28.0,2.0,,,,,,2.316285,48.879872
485,2020-1427734,2020-09-23,1,Vente,339000.0,25.0,,BD DE COURCELLES,2386,75008.0,75108,Paris 8e Arrondissement,75,,,75108000CG0017,,,41,,,,,,,,,,1,2.0,Appartement,10.0,1.0,,,,,,2.314207,48.880778
486,2020-1427741,2020-10-05,1,Vente,300000.0,61.0,,BD DE SEBASTOPOL,8894,75001.0,75101,Paris 1er Arrondissement,75,,,75101000AQ0123,,,15,27.15,,,,,,,,,1,2.0,Appartement,30.0,1.0,,,,,,2.350361,48.863172
487,2020-1427750,2020-09-29,1,Vente,210000.0,24.0,,RUE REAUMUR,8073,75003.0,75103,Paris 3e Arrondissement,75,,,75103000AE0018,,,10,18.82,,,,,,,,,1,2.0,Appartement,19.0,1.0,,,,,,2.358344,48.86529
488,2020-1427756,2020-09-17,1,Vente,398260.0,25.0,,RUE TRONCHET,9470,75008.0,75108,Paris 8e Arrondissement,75,,,75108000BS0077,,,93,33.44,,,,,,,,,1,2.0,Appartement,145.0,5.0,,,,,,2.325865,48.872635
489,2020-1427761,2020-10-14,1,Vente,21000000.0,37.0,,RUE MARBEUF,5993,75008.0,75108,Paris 8e Arrondissement,75,,,75108000AR0054,,,1,1473.9,,,,,,,,,1,2.0,Appartement,26.0,1.0,,,,,,2.305166,48.869705
490,2020-1427763,2020-10-05,1,Vente,1130000.0,164.0,,RUE DU FAUBOURG SAINT HONORE,3518,75008.0,75108,Paris 8e Arrondissement,75,,,75108000BE0017,,,200,81.71,,,,,,,,,1,2.0,Appartement,80.0,2.0,,,,,,2.309351,48.873827
491,2020-1427764,2020-10-06,1,Vente,1820000.0,29.0,,AV FRANKLIN D ROOSEVELT,3824,75008.0,75108,Paris 8e Arrondissement,75,,,75108000AM0035,,,9,114.2,,,,,,,,,1,2.0,Appartement,104.0,3.0,,,,,,2.309782,48.867252
492,2020-1427766,2020-10-08,1,Vente,261000.0,183.0,,RUE SAINT MARTIN,8694,75003.0,75103,Paris 3e Arrondissement,75,,,75103000AU0065,,,4,18.63,,,,,,,,,1,2.0,Appartement,23.0,1.0,,,,,,2.352109,48.862886
493,2020-1427772,2020-09-24,1,Vente,2250000.0,8.0,,RUE DE COPENHAGUE,2306,75008.0,75108,Paris 8e Arrondissement,75,,,75108000CF0045,,,25,171.3,,,,,,,,,1,2.0,Appartement,25.0,1.0,,,,,,2.320406,48.880471
494,2020-1427773,2020-09-24,1,Vente,429480.0,314.0,,RUE SAINT MARTIN,8694,75003.0,75103,Paris 3e Arrondissement,75,,,75103000AB0147,,,161,36.68,,,,,,,,,1,2.0,Appartement,38.0,3.0,,,,,,2.355635,48.867972
495,2020-1427776,2020-10-12,1,Vente,595000.0,163.0,,RUE SAINT MARTIN,8694,75003.0,75103,Paris 3e Arrondissement,75,,,75103000AU0057,,,56,41.87,,,,,,,,,1,2.0,Appartement,49.0,2.0,,,,,,2.351724,48.862491
496,2020-1427785,2020-10-06,1,Vente,7600.0,11.0,,RUE DE BERRI,0904,75008.0,75108,Paris 8e Arrondissement,75,,,75108000BF0016,,,134,,,,,,,,,,1,2.0,Appartement,30.0,2.0,,,,,,2.303752,48.872624
497,2020-1427792,2020-10-06,1,Vente,741810.0,14.0,,RUE DU PONT NEUF,7619,75001.0,75101,Paris 1er Arrondissement,75,,,75101000AO0126,,,30,55.76,,,,,,,,,1,2.0,Appartement,55.0,3.0,,,,,,2.344431,48.860099
498,2020-1427795,2020-10-08,1,Vente,23707.5,18.0,,RUE DE LA SOURDIERE,5368,75001.0,75101,Paris 1er Arrondissement,75,,,75101000AZ0061,,,45,,,,,,,,,,1,2.0,Appartement,100.0,4.0,,,,,,2.332391,48.865961
499,2020-1427799,2020-09-30,1,Vente,200000.0,17.0,,RUE JEAN JACQUES ROUSSEAU,4901,75001.0,75101,Paris 1er Arrondissement,75,,,75101000AS0013,,,10,21.06,,,,,,,,,1,2.0,Appartement,24.0,1.0,,,,,,2.340524,48.8626
500,2020-1427804,2020-10-19,1,Vente,2086500.0,91.0,,RUE DE MONCEAU,6419,75008.0,75108,Paris 8e Arrondissement,75,,,75108000CG0044,,,42,,,,,,,,,,1,2.0,Appartement,39.0,1.0,,,,,,2.315994,48.880659
