,id_mutation,date_mutation,numero_disposition,nature_mutation,valeur_fonciere,adresse_numero,adresse_suffixe,adresse_nom_voie,adresse_code_voie,code_postal,code_commune,nom_commune,code_departement,ancien_code_commune,ancien_nom_commune,id_parcelle,ancien_id_parcelle,numero_volume,lot1_numero,lot1_surface_carrez,lot2_numero,lot2_surface_carrez,lot3_numero,lot3_surface_carrez,lot4_numero,lot4_surface_carrez,lot5_numero,lot5_surface_carrez,nombre_lots,code_type_local,type_local,surface_reelle_bati,nombre_pieces_principales,code_nature_culture,nature_culture,code_nature_culture_speciale,nature_culture_speciale,surface_terrain,longitude,latitude
0,2021-1680089,2021-01-08,1,Vente,410000.0,111.0,,RUE SAINT-DENIS,8525,75001.0,75101,Paris 1er Arrondissement,75,,,75101000AQ0091,,,7,,,,,,,,,,1,2.0,Appartement,31.0,2.0,,,,,,2.349422,48.862768
1,2021-1680092,2021-01-07,1,Vente,300000.0,313.0,B,RUE DES TOURNELLES,9382,75003.0,75103,Paris 3e Arrondissement,75,,,75103000AN0086,,,17,19.39,,,,,,,,,1,2.0,Appartement,23.0,1.0,,,,,,2.367136,48.856147
2,2021-1680096,2021-01-08,1,Vente,1525559.0,22.0,,RUE JEAN GOUJON,4897,75008.0,75108,Paris 8e Arrondissement,75,,,75108000AK0012,,,4,83.16,,,,,,,,,1,2.0,Appartement,91.0,4.0,,,,,,2.306396,48.866139
3,2021-1680097,2021-01-13,1,Vente,912000.0,10.0,,RUE COQUILLIERE,2318,75001.0,75101,Paris 1er Arrondissement,75,,,75101000AR0094,,,109,,,,,,,,,,1,2.0,Appartement,81.0,3.0,,,,,,2.343699,48.863762
4,2021-1680103,2021-01-08,1,Vente,1250000.0,17.0,,RUE SAINT GILLES,8627,75003.0,75103,Paris 3e Arrondissement,75,,,75103000AN0032,,,77,100.84,,,,,,,,,1,2.0,Appartement,74.0,3.0,,,,,,2.364883,48.857858
5,2021-1680106,2021-01-19,1,Vente,285000.0,63.0,,BD DE COURCELLES,2386,75008.0,75108,Paris 8e Arrondissement,75,,,75108000AY0034,,,13,28.62,,,,,,,,,1,2.0,Appartement,32.0,2.0,,,,,,2.302383,48.878695
6,2021-1680107,2021-01-12,1,Vente,356644.03,127.0,,RUE SAINT-DENIS,8525,75001.0,75101,Paris 1er Arrondissement,75,,,75101000AQ0104,,,20,16.41,,,,,,,,,1,2.0,Appartement,25.0,1.0,,,,,,2.349593,48.863227
7,2021-1680108,2021-01-12,1,Vente,377000.0,25.0,,RUE TRONCHET,9470,75008.0,75108,Paris 8e Arrondissement,75,,,75108000BS0077,,,25,30.92,,,,,,,,,1,2.0,Appartement,28.0,2.0,,,,,,2.325865,48.872635
8,2021-1680114,2021-01-12,1,Vente,2970760.0,19.0,,RUE DE MIROMESNIL,6387,75008.0,75108,Paris 8e Arrondissement,75,,,75108000BK0043,,,122,200.12,,,,,,,,,1,2.0,Appartement,130.0,6.0,,,,,,2.315713,48.872459
9,2021-1680121,2021-01-07,1,Vente,1599875.0,5.0,,RUE LARRIBE,5364,75008.0,75108,Paris 8e Arrondissement,75,,,75108000CF0108,,,4,102.31,,,,,,,,,1,2.0,Appartement,108.0,4.0,,,,,,2.317894,48.88038
10,2021-1680127,2021-01-15,1,Vente,994460.0,23.0,,RUE MICHEL LE COMTE,6336,75003.0,75103,Paris 3e Arrondissement,75,,,75103000AT0084,,,36,63.52,,,,,,,,,1,2.0,Appartement,73.0,2.0,,,,,,2.355151,48.862137
11,2021-1680135,2021-01-22,1,Vente,175500.0,17.0,,RUE DE POITOU,7572,75003.0,75103,Paris 3e Arrondissement,75,,,75103000AQ0078,,,26,9.68,,,,,,,,,1,2.0,Appartement,19.0,1.0,,,,,,2.362932,48.861419
12,2021-1680142,2021-01-14,1,Vente,225000.0,62.0,,RUE NOTRE-DAME DE NAZARETH,6834,75003.0,75103,Paris 3e Arrondissement,75,,,75103000AB0059,,,24,20.47,,,,,,,,,1,2.0,Appartement,22.0,1.0,,,,,,2.356977,48.867907
13,2021-1680143,2021-01-13,1,Vente,442000.0,65.0,,RUE DES GRAVILLIERS,4302,75003.0,75103,Paris 3e Arrondissement,75,,,75103000AV0033,,,111,32.24,,,,,,,,,1,2.0,Appartement,30.0,1.0,,,,,,2.354418,48.864278
14,2021-1680150,2021-01-14,1,Vente,649000.0,43.0,,RUE D AMSTERDAM,0300,75008.0,75108,Paris 8e Arrondissement,75,,,75108000BY0016,,,13,55.54,,,,,,,,,1,2.0,Appartement,56.0,3.0,,,,,,2.326672,48.879346
15,2021-1680152,2021-01-15,1,Vente,40500.0,78.0,,BD MALESHERBES,5951,75008.0,75108,Paris 8e Arrondissement,75,,,75108000CG0102,,,55,,,,,,,,,,1,2.0,Appartement,15.0,1.0,,,,,,2.31483,48.879491
16,2021-1680154,2021-01-15,1,Vente,40500.0,78.0,,BD MALESHERBES,5951,75008.0,75108,Paris 8e Arrondissement,75,,,75108000CG0102,,,55,,,,,,,,,,1,2.0,Appartement,15.0,1.0,,,,,,2.31483,48.879491
17,2021-1680157,2021-02-01,1,Vente,54000.0,9.0,,RUE DU PONT AUX CHOUX,7605,75003.0,75103,Paris 3e Arrondissement,75,,,75103000AL0053,,,14,,,,,,,,,,1,2.0,Appartement,5.0,1.0,,,,,,2.366311,48.860877
18,2021-1680158,2021-01-29,1,Vente,50000.0,13.0,,RUE PASTOURELLE,7094,75003.0,75103,Paris 3e Arrondissement,75,,,75103000AQ0018,,,89,,,,,,,,,,1,2.0,Appartement,95.0,3.0,,,,,,2.360246,48.861896
19,2021-1680159,2021-01-26,1,Vente,3500.0,22.0,,RUE D ASTORG,0505,75008.0,75108,Paris 8e Arrondissement,75,,,75108000BL0056,,,35,,,,,,,,,,1,2.0,Appartement,40.0,2.0,,,,,,2.319691,48.873675
20,2021-1680162,2021-01-19,1,Vente,180000.0,55.0,,RUE CHARLOT,1880,75003.0,75103,Paris 3e Arrondissement,75,,,75103000AH0074,,,105,16.23,,,,,,,,,1,2.0,Appartement,12.0,1.0,,,,,,2.362976,48.863459
21,2021-1680167,2021-01-27,1,Vente,520000.0,15.0,,AV DE FRIEDLAND,3868,75008.0,75108,Paris 8e Arrondissement,75,,,75108000AU0052,,,56,35.51,,,,,,,,,1,2.0,Appartement,43.0,1.0,,,,,,2.303058,48.874251
22,2021-1680174,2021-01-15,1,Vente,445000.0,22.0,B,RUE DUPETIT-THOUARS,2997,75003.0,75103,Paris 3e Arrondissement,75,,,75103000AG0110,,,17,56.05,,,,,,,,,1,2.0,Appartement,51.0,1.0,,,,,,2.361632,48.865995
23,2021-1680179,2021-01-28,1,Vente,285000.0,56.0,,RUE CHAPON,1771,75003.0,75103,Paris 3e Arrondissement,75,,,75103000AV0028,,,521,25.35,,,,,,,,,1,2.0,Appartement,27.0,1.0,,,,,,2.353785,48.864262
24,2021-1680181,2021-01-18,1,Vente,530000.0,85.0,,RUE DU TEMPLE,9191,75003.0,75103,Paris 3e Arrondissement,75,,,75103000AT0041,,,108,35.71,,,,,,,,,1,2.0,Appartement,39.0,2.0,,,,,,2.356452,48.861888
25,2021-1680187,2021-01-08,1,Vente,391000.0,163.0,,RUE SAINT MARTIN,8694,75003.0,75103,Paris 3e Arrondissement,75,,,75103000AU0057,,,52,32.4,,,,,,,,,1,2.0,Appartement,45.0,1.0,,,,,,2.351724,48.862491
26,2021-1680189,2021-01-28,1,Vente,24000.0,255.0,,RUE SAINT-HONORE,8635,75001.0,75101,Paris 1er Arrondissement,75,,,75101000BD0058,,,38,,,,,,,,,,1,2.0,Appartement,48.0,3.0,,,,,,2.326348,48.866939
27,2021-1680192,2021-01-28,1,Vente,1095238.0,23.0,,RUE DU ROCHER,8291,75008.0,75108,Paris 8e Arrondissement,75,,,75108000BW0021,,,34,70.16,,,,,,,,,1,2.0,Appartement,20.0,1.0,,,,,,2.321856,48.876469
28,2021-1680193,2021-01-22,1,Vente,318000.0,26.0,,AV DE FRIEDLAND,3868,75008.0,75108,Paris 8e Arrondissement,75,,,75108000AV0022,,,11,24.18,,,,,,,,,1,2.0,Appartement,25.0,1.0,,,,,,2.299907,48.874579
29,2021-1680198,2021-01-29,1,Vente,550000.0,23.0,,RUE DE POITOU,7572,75003.0,75103,Paris 3e Arrondissement,75,,,75103000AQ0074,,,10,42.75,,,,,,,,,1,2.0,Appartement,41.0,2.0,,,,,,2.362593,48.86145
30,2021-1680202,2021-01-25,1,Vente,590000.0,14.0,,RUE LINCOLN,5692,75008.0,75108,Paris 8e Arrondissement,75,,,75108000AR0025,,,244,39.6,,,,,,,,,1,2.0,Appartement,53.0,3.0,,,,,,2.303419,48.870407
31,2021-1680203,2021-01-28,1,Vente,1511344.6,51.0,,AV MONTAIGNE,6450,75008.0,75108,Paris 8e Arrondissement,75,,,75108000AQ0058,,,520,70.12,,,,,,,,,1,2.0,Appartement,65.0,4.0,,,,,,2.307406,48.868413
32,2021-1680205,2021-02-08,1,Vente,730000.0,16.0,,RUE DEBELLEYME,2616,75003.0,75103,Paris 3e Arrondissement,75,,,75103000AL0027,,,21,44.42,,,,,,,,,1,2.0,Appartement,44.0,2.0,,,,,,2.363667,48.861176
33,2021-1680216,2021-01-28,1,Vente,920000.0,13.0,,RUE GRENETA,4318,75003.0,75103,Paris 3e Arrondissement,75,,,75103000AD0086,,,8,81.18,,,,,,,,,1,2.0,Appartement,81.0,3.0,,,,,,2.352513,48.865085
34,2021-1680224,2021-01-22,1,Vente,585000.0,117.0,,RUE SAINT-DENIS,8525,75001.0,75101,Paris 1er Arrondissement,75,,,75101000AQ0094,,,2,,,,,,,,,,1,2.0,Appartement,45.0,2.0,,,,,,2.349457,48.862918
35,2021-1680229,2021-01-18,1,Vente,232515.0,29.0,,RUE DEBELLEYME,2616,75003.0,75103,Paris 3e Arrondissement,75,,,75103000AJ0040,,,5,43.33,,,,,,,,,1,2.0,Appartement,38.0,2.0,,,,,,2.363759,48.862459
36,2021-1680231,2021-01-29,1,Vente,1348800.0,27.0,,RUE DE MOSCOU,6573,75008.0,75108,Paris 8e Arrondissement,75,,,75108000CE0080,,,21,,,,,,,,,,1,2.0,Appartement,48.0,2.0,,,,,,2.323537,48.881092
37,2021-1680233,2021-01-29,1,Vente,296800.0,9.0,,RUE DU MARCHE ST HONORE,6034,75001.0,75101,Paris 1er Arrondissement,75,,,75101000AZ0025,,,12,,,,,,,,,,1,2.0,Appartement,22.0,1.0,,,,,,2.331039,48.866307
38,2021-1680234,2021-02-08,1,Vente,906246.0,62.0,,RUE DE TURENNE,9506,75003.0,75103,Paris 3e Arrondissement,75,,,75103000AM0059,,,15,64.48,,,,,,,,,1,2.0,Appartement,65.0,3.0,,,,,,2.364855,48.859318
39,2021-1680237,2021-01-29,1,Vente,517000.0,90.0,,RUE DES ARCHIVES,0420,75003.0,75103,Paris 3e Arrondissement,75,,,75103000AI0068,,,88,31.02,,,,,,,,,1,2.0,Appartement,33.0,2.0,,,,,,2.360929,48.863161
40,2021-1680243,2021-02-08,1,Vente,30000.0,32.0,,RUE MESLAY,6286,75003.0,75103,Paris 3e Arrondissement,75,,,75103000AF0002,,,17,2.2,,,,,,,,,1,2.0,Appartement,9.0,1.0,,,,,,2.359149,48.868113
41,2021-1680245,2021-02-09,1,Vente,1820000.0,24.0,,AV DE L OPERA,6904,75001.0,75101,Paris 1er Arrondissement,75,,,75101000AW0084,,,76,115.83,,,,,,,,,1,2.0,Appartement,118.0,4.0,,,,,,2.334497,48.866308
42,2021-1680249,2021-02-10,1,Vente,320000.0,28.0,,RUE BEAUBOURG,0759,75003.0,75103,Paris 3e Arrondissement,75,,,75103000AT0012,,,49,26.6,,,,,,,,,1,2.0,Appartement,12.0,2.0,,,,,,2.354201,48.861762
43,2021-1680255,2021-02-09,1,Vente,350000.0,12.0,,RUE BERGER,0885,75001.0,75101,Paris 1er Arrondissement,75,,,75101000AP0010,,,6,28.85,,,,,,,,,1,2.0,Appartement,29.0,2.0,,,,,,2.348303,48.861062
44,2021-1680256,2021-02-10,1,Vente,47000.0,13.0,,RUE PASTOURELLE,7094,75003.0,75103,Paris 3e Arrondissement,75,,,75103000AQ0018,,,149,,,,,,,,,,1,2.0,Appartement,36.0,1.0,,,,,,2.360246,48.861896
45,2021-1680257,2021-02-09,1,Vente,165000.0,13.0,,RUE GRENETA,4318,75003.0,75103,Paris 3e Arrondissement,75,,,75103000AD0086,,,70,,,,,,,,,,1,2.0,Appartement,82.0,3.0,,,,,,2.352513,48.865085
46,2021-1680259,2021-01-20,1,Vente,482000.0,8.0,,RUE REAUMUR,8073,75003.0,75103,Paris 3e Arrondissement,75,,,75103000AE0025,,,14,41.16,,,,,,,,,1,2.0,Appartement,40.0,2.0,,,,,,2.359174,48.865117
47,2021-1680260,2021-02-09,1,Vente,580000.0,9.0,,RUE DES INNOCENTS,4718,75001.0,75101,Paris 1er Arrondissement,75,,,75101000AO0081,,,110,50.5,,,,,,,,,1,2.0,Appartement,53.0,2.0,,,,,,2.347393,48.860387
48,2021-1680261,2021-02-05,1,Vente,1168945.0,14.0,,RUE DE VEZELAY,9723,75008.0,75108,Paris 8e Arrondissement,75,,,75108000CH0027,,,177,84.7,,,,,,,,,1,2.0,Appartement,84.0,3.0,,,,,,2.314291,48.878635
49,2021-1680262,2021-01-29,1,Vente,163000.0,41.0,,RUE DES PETITS CHAMPS,7348,75001.0,75101,Paris 1er Arrondissement,75,,,75101000AW0029,,,4,,,,,,,,,,1,2.0,Appartement,60.0,2.0,,,,,,2.336053,48.86679
50,2021-1680265,2021-02-04,1,Vente,637500.0,76.0,,AV DES CHAMPS ELYSEES,1733,75008.0,75108,Paris 8e Arrondissement,75,,,75108000BG0009,,,304,38.01,,,,,,,,,1,2.0,Appartement,35.0,1.0,,,,,,2.304678,48.871669
51,2021-1680279,2021-02-12,1,Vente,32000.0,10.0,,RUE DU JOUR,5033,75001.0,75101,Paris 1er Arrondissement,75,,,75101000AR0118,,,61,7.74,,,,,,,,,1,2.0,Appartement,7.0,1.0,,,,,,2.345291,48.863929
52,2021-1680281,2021-01-26,1,Vente,75000.0,13.0,,RUE DE TURIN,9510,75008.0,75108,Paris 8e Arrondissement,75,,,75108000BZ0048,,,35,,,,,,,,,,1,2.0,Appartement,8.0,1.0,,,,,,2.324694,48.880261
53,2021-1680284,2021-02-05,1,Vente,6500.0,21.0,,RUE DES FILLES DU CALVAIRE,3643,75003.0,75103,Paris 3e Arrondissement,75,,,75103000AJ0010,,,259,,,,,,,,,,1,2.0,Appartement,208.0,6.0,,,,,,2.365982,48.863299
54,2021-1680286,2021-02-02,1,Vente,1900000.0,26.0,,RUE CAMBON,1449,75001.0,75101,Paris 1er Arrondissement,75,,,75101000BC0067,,,6,107.96,,,,,,,,,1,2.0,Appartement,102.0,4.0,,,,,,2.327093,48.867873
55,2021-1680288,2021-02-19,1,Vente,230000.0,23.0,,RUE DU FAUBOURG SAINT HONORE,3518,75008.0,75108,Paris 8e Arrondissement,75,,,75108000BP0025,,,38,,,,,,,,,,1,2.0,Appartement,18.0,1.0,,,,,,2.32107,48.868699
56,2021-1680291,2021-02-03,1,Vente,1230000.0,29.0,,PL DAUPHINE,2594,75001.0,75101,Paris 1er Arrondissement,75,,,75101000AL0033,,,10,43.6,,,,,,,,,1,2.0,Appartement,50.0,1.0,,,,,,2.341566,48.856822
57,2021-1680292,2021-02-10,1,Vente,660000.0,45.0,,RUE DES ARCHIVES,0420,75003.0,75103,Paris 3e Arrondissement,75,,,75103000AT0056,,,42,,,,,,,,,,1,2.0,Appartement,117.0,4.0,,,,,,2.357022,48.860337
58,2021-1680293,2021-02-04,2,Vente,645000.0,23.0,,BD SAINT MARTIN,8692,75003.0,75103,Paris 3e Arrondissement,75,,,75103000AF0003,,,51,50.32,,,,,,,,,1,2.0,Appartement,65.0,2.0,,,,,,2.359348,48.868065
59,2021-1680295,2021-02-18,1,Vente,117000.0,24.0,,RUE RAMBUTEAU,8009,75003.0,75103,Paris 3e Arrondissement,75,,,75103000AT0018,,,134,,,,,,,,,,1,2.0,Appartement,8.0,1.0,,,,,,2.354486,48.861171
60,2021-1680298,2021-02-03,1,Vente,404000.0,58.0,,RUE RAMBUTEAU,8009,75003.0,75103,Paris 3e Arrondissement,75,,,75103000AU0105,,,12,24.76,,,,,,,,,1,2.0,Appartement,23.0,2.0,,,,,,2.35146,48.861806
61,2021-1680300,2021-02-19,1,Vente,118000.0,29.0,,RUE TRONCHET,9470,75008.0,75108,Paris 8e Arrondissement,75,,,75108000BS0074,,,128,9.14,,,,,,,,,1,2.0,Appartement,9.0,1.0,,,,,,2.326005,48.872948
62,2021-1680306,2021-01-29,1,Vente,2563100.0,55.0,,RUE DES MATHURINS,6176,75008.0,75108,Paris 8e Arrondissement,75,,,75108000BS0011,,,34,,,,,,,,,,1,2.0,Appartement,18.0,1.0,,,,,,2.321918,48.873287
63,2021-1680318,2021-02-24,1,Vente,821500.0,38.0,,AV GEORGE V,4110,75008.0,75108,Paris 8e Arrondissement,75,,,75108000AP0020,,,142,53.38,,,,,,,,,1,2.0,Appartement,60.0,2.0,,,,,,2.301629,48.869515
64,2021-1680323,2021-02-23,1,Vente,275000.0,9.0,,RUE SAINT GILLES,8627,75003.0,75103,Paris 3e Arrondissement,75,,,75103000AN0035,,,38,20.86,,,,,,,,,1,2.0,Appartement,20.0,1.0,,,,,,2.365535,48.857847
65,2021-1680324,2021-02-12,1,Vente,160000.0,16.0,,RUE DUPETIT-THOUARS,2997,75003.0,75103,Paris 3e Arrondissement,75,,,75103000AG0064,,,21,11.95,,,,,,,,,1,2.0,Appartement,12.0,1.0,,,,,,2.361793,48.865824
66,2021-1680327,2021-02-16,1,Vente,312767.03,41.0,,RUE NOTRE-DAME DE NAZARETH,6834,75003.0,75103,Paris 3e Arrondissement,75,,,75103000AB0076,,,11,27.23,,,,,,,,,1,2.0,Appartement,26.0,2.0,,,,,,2.357563,48.867414
67,2021-1680331,2021-02-09,1,Vente,217700.0,5.0,B,RUE DES HAUDRIETTES,4483,75003.0,75103,Paris 3e Arrondissement,75,,,75103000AT0044,,,36,15.55,,,,,,,,,1,2.0,Appartement,15.0,1.0,,,,,,2.357121,48.861451
68,2021-1680333,2021-02-18,1,Vente,223000.0,44.0,,RUE DE LABORDE,5200,75008.0,75108,Paris 8e Arrondissement,75,,,75108000CI0071,,,34,,,,,,,,,,1,2.0,Appartement,16.0,1.0,,,,,,2.316697,48.875833
69,2021-1680334,2021-02-25,1,Vente,321820.0,268.0,,RUE DU FAUBOURG SAINT HONORE,3518,75008.0,75108,Paris 8e Arrondissement,75,,,75108000AY0008,,,20,23.85,,,,,,,,,1,2.0,Appartement,22.0,1.0,,,,,,2.299366,48.877814
70,2021-1680335,2021-02-04,1,Vente,230300.0,30.0,,RUE DE LIEGE,5665,75008.0,75108,Paris 8e Arrondissement,75,,,75108000BZ0035,,,4,17.55,,,,,,,,,1,2.0,Appartement,16.0,1.0,,,,,,2.32583,48.879698
71,2021-1680341,2021-02-24,1,Vente,117002.0,29.0,,BD DE COURCELLES,2386,75008.0,75108,Paris 8e Arrondissement,75,,,75108000CG0013,,,52,11.4,,,,,,,,,1,2.0,Appartement,13.0,1.0,,,,,,2.313691,48.880676
72,2021-1680342,2021-03-01,1,Vente,527700.0,66.0,,RUE DU FAUBOURG SAINT HONORE,3518,75008.0,75108,Paris 8e Arrondissement,75,,,75108000BN0042,,,40,35.18,,,,,,,,,1,2.0,Appartement,33.0,1.0,,,,,,2.3186,48.870083
73,2021-1680343,2021-02-17,1,Vente,560000.0,33.0,,AV FRANKLIN D ROOSEVELT,3824,75008.0,75108,Paris 8e Arrondissement,75,,,75108000AM0033,,,16,36.12,,,,,,,,,1,2.0,Appartement,36.0,1.0,,,,,,2.309626,48.867484
74,2021-1680344,2021-02-22,1,Vente,1700000.0,11.0,B,RUE JEAN MERMOZ,4921,75008.0,75108,Paris 8e Arrondissement,75,,,75108000BI0071,,,6,147.67,,,,,,,,,1,2.0,Appartement,155.0,5.0,,,,,,2.311265,48.871131
75,2021-1680346,2021-02-17,1,Vente,350000.0,53.0,,RUE NOTRE-DAME DE NAZARETH,6834,75003.0,75103,Paris 3e Arrondissement,75,,,75103000AB0087,,,34,26.62,,,,,,,,,1,2.0,Appartement,24.0,1.0,,,,,,2.356554,48.867531
76,2021-1680350,2021-02-08,1,Vente,521000.0,31.0,A,RUE AU MAIRE,5927,75003.0,75103,Paris 3e Arrondissement,75,,,75103000AE0106,,,6,41.76,,,,,,,,,1,2.0,Appartement,40.0,3.0,,,,,,2.35588,48.864426
77,2021-1680352,2021-02-19,1,Vente,619000.0,15.0,,RUE DE SURENE,9129,75008.0,75108,Paris 8e Arrondissement,75,,,75108000BN0014,,,15,49.53,,,,,,,,,1,2.0,Appartement,50.0,3.0,,,,,,2.320647,48.870636
78,2021-1680353,2021-02-22,1,Vente,1550000.0,27.0,,RUE DE LIEGE,5665,75008.0,75108,Paris 8e Arrondissement,75,,,75108000BY0012,,,4,123.17,,,,,,,,,1,2.0,Appartement,123.0,4.0,,,,,,2.326249,48.879207
79,2021-1680354,2021-02-16,1,Vente,180000.0,12.0,,RUE CAFFARELLI,1413,75003.0,75103,Paris 3e Arrondissement,75,,,75103000AH0097,,,26,12.54,,,,,,,,,1,2.0,Appartement,15.0,1.0,,,,,,2.362182,48.863657
80,2021-1680355,2021-02-23,1,Vente,250000.0,4.0,,RUE CHARLES-FRANCOIS DUPUIS,3015,75003.0,75103,Paris 3e Arrondissement,75,,,75103000AG0039,,,19,20.02,,,,,,,,,1,2.0,Appartement,18.0,1.0,,,,,,2.362926,48.865036
81,2021-1680359,2021-02-15,1,Vente,38892.0,14.0,,RUE DU GRENIER SAINT LAZARE,4320,75003.0,75103,Paris 3e Arrondissement,75,,,75103000AV0106,,,7,,,,,,,,,,1,2.0,Appartement,12.0,1.0,,,,,,2.353818,48.863089
82,2021-1680360,2021-02-26,1,Vente,60000.0,87.0,,BD DE COURCELLES,2386,75008.0,75108,Paris 8e Arrondissement,75,,,75108000AY0010,,,25,,,,,,,,,,1,2.0,Appartement,44.0,2.0,,,,,,2.299547,48.877946
83,2021-1680363,2021-02-11,1,Vente,496000.0,104.0,,RUE LA BOETIE,5194,75008.0,75108,Paris 8e Arrondissement,75,,,75108000BG0044,,,29,33.8,,,,,,,,,1,2.0,Appartement,29.0,2.0,,,,,,2.308272,48.872115
84,2021-1680364,2021-02-24,1,Vente,730000.0,13.0,,RUE DE WASHINGTON,9942,75008.0,75108,Paris 8e Arrondissement,75,,,75108000AU0013,,,7,56.76,,,,,,,,,1,2.0,Appartement,61.0,3.0,,,,,,2.301926,48.873003
85,2021-1680365,2021-02-26,1,Vente,815000.0,17.0,,RUE DES FILLES DU CALVAIRE,3643,75003.0,75103,Paris 3e Arrondissement,75,,,75103000AJ0012,,,21,49.86,,,,,,,,,1,2.0,Appartement,78.0,3.0,,,,,,2.365787,48.86292
86,2021-1680369,2021-02-23,1,Vente,365170.0,152.0,,BD HAUSSMANN,4485,75008.0,75108,Paris 8e Arrondissement,75,,,75108000CL0065,,,179,20.58,,,,,,,,,1,2.0,Appartement,22.0,1.0,,,,,,2.311643,48.87549
87,2021-1680372,2021-03-01,1,Vente,1630000.0,29.0,,RUE DE LIEGE,5665,75008.0,75108,Paris 8e Arrondissement,75,,,75108000BY0011,,,4,165.43,,,,,,,,,1,2.0,Appartement,186.0,6.0,,,,,,2.326105,48.879201
88,2021-1680373,2021-02-25,1,Vente,250000.0,75.0,,RUE SAINT-HONORE,8635,75001.0,75101,Paris 1er Arrondissement,75,,,75101000AT0085,,,8,,,,,,,,,,1,2.0,Appartement,27.0,1.0,,,,,,2.344096,48.861015
89,2021-1680374,2021-02-18,1,Vente,1329200.0,33.0,,RUE D AMSTERDAM,0300,75008.0,75108,Paris 8e Arrondissement,75,,,75108000BY0021,,,11,93.39,,,,,,,,,1,2.0,Appartement,92.0,4.0,,,,,,2.32665,48.878756
90,2021-1680376,2021-02-16,1,Vente,24000.0,17.0,B,RUE LA BOETIE,5194,75008.0,75108,Paris 8e Arrondissement,75,,,75108000BL0015,,,45,,,,,,,,,,1,2.0,Appartement,118.0,3.0,,,,,,2.317344,48.873875
91,2021-1680377,2021-03-05,1,Vente,1388600.0,28.0,,RUE DE CONSTANTINOPLE,2289,75008.0,75108,Paris 8e Arrondissement,75,,,75108000CF0022,,,12,102.03,,,,,,,,,1,2.0,Appartement,100.0,5.0,,,,,,2.318453,48.88082
92,2021-1680382,2021-02-19,1,Vente,397395.0,43.0,,RUE REAUMUR,8073,75003.0,75103,Paris 3e Arrondissement,75,,,75103000AD0014,,,9,,,,,,,,,,1,2.0,Appartement,15.0,1.0,,,,,,2.353908,48.865784
93,2021-1680385,2021-03-02,1,Vente,444800.0,50.0,,RUE DE BERRI,0904,75008.0,75108,Paris 8e Arrondissement,75,,,75108000BD0049,,,48,32.78,,,,,,,,,1,2.0,Appartement,32.0,1.0,,,,,,2.308587,48.874673
94,2021-1680386,2021-02-19,1,Vente,1000.0,49.0,,AV MONTAIGNE,6450,75008.0,75108,Paris 8e Arrondissement,75,,,75108000AQ0064,,,48,,,,,,,,,,1,2.0,Appartement,75.0,2.0,,,,,,2.307158,48.867864
95,2021-1680387,2021-02-26,1,Vente,280000.0,36.0,,RUE DE SAINTONGE,8716,75003.0,75103,Paris 3e Arrondissement,75,,,75103000AJ0043,,,4,,,,,,,,,,1,2.0,Appartement,24.0,1.0,,,,,,2.363657,48.862607
96,2021-1680394,2021-02-26,1,Vente,336000.0,5.0,,RUE MONTMARTRE,6513,75001.0,75101,Paris 1er Arrondissement,75,,,75101000AR0116,,,3,26.51,,,,,,,,,1,2.0,Appartement,30.0,1.0,,,,,,2.345441,48.863862
97,2021-1680396,2021-03-10,1,Vente,340000.0,8.0,,RUE DE BRAQUE,1261,75003.0,75103,Paris 3e Arrondissement,75,,,75103000AT0049,,,14,23.98,,,,,,,,,1,2.0,Appartement,26.0,1.0,,,,,,2.356757,48.861174
98,2021-1680403,2021-02-26,1,Vente,700000.0,18.0,,RUE MONTALIVET,6454,75008.0,75108,Paris 8e Arrondissement,75,,,75108000BN0063,,,1,74.02,,,,,,,,,1,2.0,Appartement,71.0,2.0,,,,,,2.318301,48.871309
99,2021-1680406,2021-03-09,1,Vente,812755.0,77.0,,RUE DE TURBIGO,9504,75003.0,75103,Paris 3e Arrondissement,75,,,75103000AF0095,,,19,64.28,,,,,,,,,1,2.0,Appartement,60.0,3.0,,,,,,2.36045,48.866659
100,2021-1680407,2021-03-05,1,Vente,532200.0,152.0,,BD HAUSSMANN,4485,75008.0,75108,Paris 8e Arrondissement,75,,,75108000CL0065,,,154,33.4,,,,,,,,,1,2.0,Appartement,35.0,1.0,,,,,,2.311643,48.87549
101,2021-1680408,2021-03-11,1,Vente,580000.0,5.0,,RUE DE L ISLY,4748,75008.0,75108,Paris 8e Arrondissement,75,,,75108000BU0043,,,8,47.45,,,,,,,,,1,2.0,Appartement,45.0,2.0,,,,,,2.325894,48.874596
102,2021-1680409,2021-02-24,1,Vente,280050.0,86.0,,BD MALESHERBES,5951,75008.0,75108,Paris 8e Arrondissement,75,,,75108000CG0019,,,74,,,,,,,,,,1,2.0,Appartement,34.0,2.0,,,,,,2.313963,48.880264
103,2021-1680414,2021-03-02,1,Vente,310000.0,1.0,,RUE COQ HERON,2316,75001.0,75101,Paris 1er Arrondissement,75,,,75101000AR0040,,,18,20.27,,,,,,,,,1,2.0,Appartement,19.0,1.0,,,,,,2.341867,48.864233
104,2021-1680418,2021-02-24,1,Vente,257940.0,55.0,,RUE DES GRAVILLIERS,4302,75003.0,75103,Paris 3e Arrondissement,75,,,75103000AV0038,,,6,18.9,,,,,,,,,1,2.0,Appartement,22.0,1.0,,,,,,2.354753,48.864172
105,2021-1680419,2021-03-11,1,Vente,650300.0,32.0,,RUE MICHEL LE COMTE,6336,75003.0,75103,Paris 3e Arrondissement,75,,,75103000AS0087,,,48,51.58,,,,,,,,,1,2.0,Appartement,51.0,2.0,,,,,,2.354779,48.862814
106,2021-1680423,2021-03-11,1,Vente,294771.1,11.0,,RUE DU MONT-THABOR,6537,75001.0,75101,Paris 1er Arrondissement,75,,,75101000AY0007,,,14,18.87,,,,,,,,,1,2.0,Appartement,18.0,1.0,,,,,,2.328722,48.865485
107,2021-1680424,2021-03-12,1,Vente,170000.0,48.0,,RUE DE BASSANO,0703,75008.0,75108,Paris 8e Arrondissement,75,,,75108000AS0045,,,28,12.79,,,,,,,,,1,2.0,Appartement,17.0,1.0,,,,,,2.299523,48.870675
108,2021-1680427,2021-02-17,1,Vente,220000.0,69.0,,RUE DE BRETAGNE,1275,75003.0,75103,Paris 3e Arrondissement,75,,,75103000AI0004,,,51,20.31,,,,,,,,,1,2.0,Appartement,20.0,1.0,,,,,,2.359673,48.86439
109,2021-1680428,2021-03-04,1,Vente,805000.0,16.0,,RUE DUPETIT-THOUARS,2997,75003.0,75103,Paris 3e Arrondissement,75,,,75103000AG0064,,,83,,,,,,,,,,1,2.0,Appartement,17.0,1.0,,,,,,2.361793,48.865824
110,2021-1680433,2021-02-23,1,Vente,7000.0,14.0,,AV DE MESSINE,6296,75008.0,75108,Paris 8e Arrondissement,75,,,75108000CI0100,,,40,,,,,,,,,,1,2.0,Appartement,210.0,5.0,,,,,,2.314219,48.876184
111,2021-1680435,2021-03-05,1,Vente,710000.0,9.0,,RUE BAYARD,0746,75008.0,75108,Paris 8e Arrondissement,75,,,75108000AK0021,,,78,65.8,,,,,,,,,1,2.0,Appartement,75.0,2.0,,,,,,2.307482,48.865696
112,2021-1680440,2021-03-02,1,Vente,220000.0,170.0,,RUE DU TEMPLE,9191,75003.0,75103,Paris 3e Arrondissement,75,,,75103000AG0110,,,43,17.82,,,,,,,,,1,2.0,Appartement,17.0,1.0,,,,,,2.361632,48.865995
113,2021-1680448,2021-03-08,1,Vente,2800000.0,8.0,,RUE DE MONDOVI,6429,75001.0,75101,Paris 1er Arrondissement,75,,,75101000BD0055,,,6,149.4,,,,,,,,,1,2.0,Appartement,154.0,4.0,,,,,,2.324759,48.866814
114,2021-1680450,2021-03-18,1,Vente,2340450.0,12.0,,RUE ELZEVIR,3196,75003.0,75103,Paris 3e Arrondissement,75,,,75103000AO0045,,,13,114.4,,,,,,,,,1,2.0,Appartement,114.0,4.0,,,,,,2.362072,48.858506
115,2021-1680452,2021-02-26,1,Vente,400000.0,21.0,,RUE BERANGER,0871,75003.0,75103,Paris 3e Arrondissement,75,,,75103000AG0090,,,8,32.27,,,,,,,,,1,2.0,Appartement,20.0,1.0,,,,,,2.36287,48.866347
116,2021-1680460,2021-03-08,1,Vente,230000.0,35.0,,RUE AU MAIRE,5927,75003.0,75103,Paris 3e Arrondissement,75,,,75103000AE0103,,,7,18.18,,,,,,,,,1,2.0,Appartement,17.0,1.0,,,,,,2.355733,48.864537
117,2021-1680464,2021-03-10,1,Vente,10000.0,56.0,,RUE DE ROME,8339,75008.0,75108,Paris 8e Arrondissement,75,,,75108000BZ0005,,,40,,,,,,,,,,1,2.0,Appartement,123.0,4.0,,,,,,2.322085,48.879764
118,2021-1680466,2021-03-05,1,Vente,1000000.0,44.0,,RUE DE MONTMORENCY,6517,75003.0,75103,Paris 3e Arrondissement,75,,,75103000AV0079,,,101,86.19,,,,,,,,,1,2.0,Appartement,85.0,3.0,,,,,,2.353499,48.863803
119,2021-1680471,2021-03-15,1,Vente,652500.0,17.0,,PL DAUPHINE,2594,75001.0,75101,Paris 1er Arrondissement,75,,,75101000AL0020,,,5,30.2,,,,,,,,,1,2.0,Appartement,30.0,2.0,,,,,,2.342125,48.856426
120,2021-1680472,2021-03-15,1,Vente,643313.0,86.0,,RUE QUINCAMPOIX,7970,75003.0,75103,Paris 3e Arrondissement,75,,,75103000AU0042,,,16,45.58,,,,,,,,,1,2.0,Appartement,44.0,2.0,,,,,,2.351545,48.86264
121,2021-1680474,2021-02-26,1,Vente,200000.0,9.0,,RUE SAINTE APOLLINE,8538,75003.0,75103,Paris 3e Arrondissement,75,,,75103000AB0132,,,61,14.75,,,,,,,,,1,2.0,Appartement,16.0,1.0,,,,,,2.354382,48.868728
122,2021-1680475,2021-02-26,1,Vente,635000.0,14.0,,RUE DE LA COSSONNERIE,2357,75001.0,75101,Paris 1er Arrondissement,75,,,75101000AP0025,,,12,49.11,,,,,,,,,1,2.0,Appartement,47.0,2.0,,,,,,2.348392,48.861701
123,2021-1680477,2021-03-17,1,Vente,4000.0,11.0,,RUE JEAN JACQUES ROUSSEAU,4901,75001.0,75101,Paris 1er Arrondissement,75,,,75101000AS0015,,,26,,,,,,,,,,1,2.0,Appartement,27.0,1.0,,,,,,2.340107,48.862401
124,2021-1680480,2021-03-08,1,Vente,40000.0,15.0,,RUE DE MADRID,5897,75008.0,75108,Paris 8e Arrondissement,75,,,75108000BX0050,,,16,10.0,,,,,,,,,1,2.0,Appartement,7.0,1.0,,,,,,2.320238,48.878196
125,2021-1680483,2021-03-18,1,Vente,110000.0,318.0,,RUE SAINT MARTIN,8694,75003.0,75103,Paris 3e Arrondissement,75,,,75103000AB0049,,,31,10.8,,,,,,,,,1,2.0,Appartement,10.0,1.0,,,,,,2.355699,48.86803
126,2021-1680486,2021-03-18,1,Vente,368600.0,147.0,,RUE DU TEMPLE,9191,75003.0,75103,Paris 3e Arrondissement,75,,,75103000AE0168,,,34,28.54,,,,,,,,,1,2.0,Appartement,29.0,2.0,,,,,,2.358455,48.864069
127,2021-1680487,2021-03-05,1,Vente,3000.0,4.0,,RUE DE SAINT PETERSBOURG,8724,75008.0,75108,Paris 8e Arrondissement,75,,,75108000BZ0065,,,463,,,,,,,,,,1,2.0,Appartement,8.0,1.0,,,,,,2.324251,48.87945
128,2021-1680488,2021-03-05,2,Vente,1.0,4.0,,RUE DE SAINT PETERSBOURG,8724,75008.0,75108,Paris 8e Arrondissement,75,,,75108000BZ0065,,,449,,,,,,,,,,1,2.0,Appartement,8.0,1.0,,,,,,2.324251,48.87945
129,2021-1680490,2021-03-05,1,Vente,7500.0,4.0,,RUE DE SAINT PETERSBOURG,8724,75008.0,75108,Paris 8e Arrondissement,75,,,75108000BZ0065,,,459,,,,,,,,,,1,2.0,Appartement,14.0,1.0,,,,,,2.324251,48.87945
130,2021-1680497,2021-03-23,1,Vente,840000.0,29.0,,PL DAUPHINE,2594,75001.0,75101,Paris 1er Arrondissement,75,,,75101000AL0033,,,6,42.77,,,,,,,,,1,2.0,Appartement,50.0,1.0,,,,,,2.341566,48.856822
131,2021-1680513,2021-02-26,1,Vente,2720.0,80.0,,RUE DE ROME,8339,75008.0,75108,Paris 8e Arrondissement,75,,,75108000CE0005,,,25,,,,,,,,,,1,2.0,Appartement,49.0,3.0,,,,,,2.321263,48.881121
132,2021-1680516,2021-02-26,1,Vente,3040.0,80.0,,RUE DE ROME,8339,75008.0,75108,Paris 8e Arrondissement,75,,,75108000CE0005,,,19,,,,,,,,,,1,2.0,Appartement,45.0,3.0,,,,,,2.321263,48.881121
133,2021-1680519,2021-02-26,1,Vente,5872.0,80.0,,RUE DE ROME,8339,75008.0,75108,Paris 8e Arrondissement,75,,,75108000CE0005,,,20,,,,,,,,,,1,2.0,Appartement,45.0,2.0,,,,,,2.321263,48.881121
134,2021-1680520,2021-02-26,1,Vente,3152.0,80.0,,RUE DE ROME,8339,75008.0,75108,Paris 8e Arrondissement,75,,,75108000CE0005,,,18,,,,,,,,,,1,2.0,Appartement,45.0,2.0,,,,,,2.321263,48.881121
135,2021-1680521,2021-03-05,1,Vente,650000.0,5.0,,RUE LOUIS MURAT,5800,75008.0,75108,Paris 8e Arrondissement,75,,,75108000CL0081,,,1,,,,,,,,,,1,2.0,Appartement,50.0,2.0,,,,,,2.308861,48.876053
136,2021-1680527,2021-03-10,1,Vente,650000.0,17.0,,BD MALESHERBES,5951,75008.0,75108,Paris 8e Arrondissement,75,,,75108000BM0064,,,53,,,,,,,,,,1,2.0,Appartement,58.0,3.0,,,,,,2.321505,48.871755
137,2021-1680534,2021-03-16,1,Vente,320000.0,19.0,,RUE CHATEAUBRIAND,1914,75008.0,75108,Paris 8e Arrondissement,75,,,75108000AU0023,,,27,22.19,,,,,,,,,1,2.0,Appartement,22.0,1.0,,,,,,2.300759,48.873411
138,2021-1680535,2021-03-26,1,Vente,366000.0,44.0,,RUE COQUILLIERE,2318,75001.0,75101,Paris 1er Arrondissement,75,,,75101000AR0007,,,130,36.6,,,,,,,,,1,2.0,Appartement,36.0,1.0,,,,,,2.340865,48.864734
139,2021-1680538,2021-03-16,1,Vente,248900.0,21.0,,RUE DES GRAVILLIERS,4302,75003.0,75103,Paris 3e Arrondissement,75,,,75103000AS0011,,,305,18.82,,,,,,,,,1,2.0,Appartement,21.0,1.0,,,,,,2.356857,48.863613
140,2021-1680543,2021-02-24,1,Vente,11000.0,276.0,,RUE SAINT-HONORE,8635,75001.0,75101,Paris 1er Arrondissement,75,,,75101000AX0017,,,159,,,,,,,,,,1,2.0,Appartement,61.0,3.0,,,,,,2.333387,48.864577
141,2021-1680546,2021-03-30,1,Vente,235530.0,111.0,,RUE SAINT-DENIS,8525,75001.0,75101,Paris 1er Arrondissement,75,,,75101000AQ0091,,,11,16.56,,,,,,,,,1,2.0,Appartement,19.0,1.0,,,,,,2.349422,48.862768
142,2021-1680547,2021-03-24,1,Vente,338800.0,99.0,,RUE SAINT-HONORE,8635,75001.0,75101,Paris 1er Arrondissement,75,,,75101000AT0117,,,23,,,,,,,,,,1,2.0,Appartement,15.0,1.0,,,,,,2.342899,48.861229
143,2021-1680549,2021-03-15,1,Vente,725000.0,28.0,,RUE NOTRE-DAME DE NAZARETH,6834,75003.0,75103,Paris 3e Arrondissement,75,,,75103000AF0059,,,3,,,,,,,,,,1,2.0,Appartement,72.0,4.0,,,,,,2.359749,48.867463
144,2021-1680550,2021-03-30,1,Vente,795000.0,22.0,,RUE DE SAINTONGE,8716,75003.0,75103,Paris 3e Arrondissement,75,,,75103000AK0081,,,14,52.02,,,,,,,,,1,2.0,Appartement,46.0,2.0,,,,,,2.36296,48.86199
145,2021-1680554,2021-03-24,1,Vente,80000.0,19.0,,RUE DU COLISEE,2185,75008.0,75108,Paris 8e Arrondissement,75,,,75108000BH0009,,,24,8.58,,,,,,,,,1,2.0,Appartement,10.0,1.0,,,,,,2.308322,48.870913
146,2021-1680560,2021-03-26,1,Vente,292000.0,52.0,,RUE DES GRAVILLIERS,4302,75003.0,75103,Paris 3e Arrondissement,75,,,75103000AE0097,,,14,21.35,,,,,,,,,1,2.0,Appartement,24.0,2.0,,,,,,2.355637,48.864366
147,2021-1680561,2021-03-29,1,Vente,424220.0,33.0,,RUE MARC SEGUIN,6036,75018.0,75118,Paris 18e Arrondissement,75,,,75118000DA0003,,,28,41.95,,,,,,,,,1,2.0,Appartement,48.0,3.0,,,,,,2.36082,48.891858
148,2021-1680564,2021-04-06,1,Vente,675200.0,47.0,,RUE NOTRE-DAME DE LORETTE,6832,75009.0,75109,Paris 9e Arrondissement,75,,,75109000AF0116,,,54,54.18,,,,,,,,,1,2.0,Appartement,53.0,3.0,,,,,,2.335705,48.879612
149,2021-1680565,2021-04-02,1,Vente,180000.0,8.0,,RUE DE STOCKHOLM,9098,75008.0,75108,Paris 8e Arrondissement,75,,,75108000BY0051,,,22,18.36,,,,,,,,,1,2.0,Appartement,18.0,2.0,,,,,,2.322238,48.877187
150,2021-1680566,2021-04-02,2,Vente,150000.0,8.0,,RUE DE STOCKHOLM,9098,75008.0,75108,Paris 8e Arrondissement,75,,,75108000BY0051,,,19,10.76,,,,,,,,,1,2.0,Appartement,9.0,1.0,,,,,,2.322238,48.877187
151,2021-1680567,2021-04-02,1,Vente,130000.0,9.0,,RUE DE PARADIS,7043,75010.0,75110,Paris 10e Arrondissement,75,,,75110000AR0002,,,98,9.69,,,,,,,,,1,2.0,Appartement,11.0,1.0,,,,,,2.353904,48.8745
152,2021-1680569,2021-03-29,1,Vente,1500000.0,7.0,,RUE VILLEDO,9824,75001.0,75101,Paris 1er Arrondissement,75,,,75101000AW0051,,,8,,,,,,,,,,1,2.0,Appartement,35.0,2.0,,,,,,2.336114,48.866165
153,2021-1680575,2021-03-12,1,Vente,750000.0,208.0,,RUE SAINT MAUR,8699,75010.0,75110,Paris 10e Arrondissement,75,,,75110000BL0028,,,543,54.69,,,,,,,,,1,2.0,Appartement,60.0,3.0,,,,,,2.371885,48.873209
154,2021-1680583,2021-03-26,1,Vente,449000.0,46.0,,RUE DE LA CHINE,2010,75020.0,75120,Paris 20e Arrondissement,75,,,75120000BT0039,,,11,40.5,,,,,,,,,1,2.0,Appartement,39.0,3.0,,,,,,2.396799,48.86941
155,2021-1680585,2021-03-17,1,Vente,102000.0,185.0,,RUE SAINT-DENIS,8525,75002.0,75102,Paris 2e Arrondissement,75,,,75102000AM0198,,,16,9.01,,,,,,,,,1,2.0,Appartement,12.0,1.0,,,,,,2.35047,48.86607
156,2021-1680594,2021-03-12,1,Vente,320000.0,89.0,,RUE BELLIARD,0838,75018.0,75118,Paris 18e Arrondissement,75,,,75118000AY0066,,,988,35.55,,,,,,,,,1,2.0,Appartement,34.0,2.0,,,,,,2.340625,48.896686
157,2021-1680601,2021-03-24,1,Vente,280000.0,20.0,,RUE VAUVENARGUES,9628,75018.0,75118,Paris 18e Arrondissement,75,,,75118000AI0034,,,375,28.03,,,,,,,,,1,2.0,Appartement,28.0,1.0,,,,,,2.333727,48.893556
158,2021-1680613,2021-03-25,1,Vente,950000.0,7.0,,PL CHARLES DULLIN,1827,75018.0,75118,Paris 18e Arrondissement,75,,,75118000BQ0081,,,6,99.3,,,,,,,,,1,2.0,Appartement,105.0,4.0,,,,,,2.341525,48.883282
159,2021-1680615,2021-03-23,1,Vente,255000.0,23.0,,RUE LEMERCIER,5503,75017.0,75117,Paris 17e Arrondissement,75,,,75117000CO0105,,,141,18.48,,,,,,,,,1,2.0,Appartement,20.0,1.0,,,,,,2.323715,48.88621
160,2021-1680622,2021-03-08,1,Vente,2200.0,57.0,,RUE DE PARADIS,7043,75010.0,75110,Paris 10e Arrondissement,75,,,75110000AS0002,,,28,,,,,,,,,,1,2.0,Appartement,25.0,1.0,,,,,,2.348647,48.875582
161,2021-1680627,2021-03-31,1,Vente,590000.0,114.0,,RUE MONTMARTRE,6513,75002.0,75102,Paris 2e Arrondissement,75,,,75102000AJ0025,,,6,50.19,,,,,,,,,1,2.0,Appartement,53.0,3.0,,,,,,2.344085,48.867709
162,2021-1680628,2021-03-08,1,Vente,400.0,57.0,,RUE DE PARADIS,7043,75010.0,75110,Paris 10e Arrondissement,75,,,75110000AS0002,,,29,,,,,,,,,,1,2.0,Appartement,25.0,1.0,,,,,,2.348647,48.875582
163,2021-1680631,2021-03-18,1,Vente,245500.0,12.0,,RUE DU ROCHER,8291,75008.0,75108,Paris 8e Arrondissement,75,,,75108000BV0014,,,48,12.01,,,,,,,,,1,2.0,Appartement,12.0,1.0,,,,,,2.323092,48.876198
164,2021-1680633,2021-03-26,1,Vente,4000.0,5.0,,RUE DE LABORDE,5200,75008.0,75108,Paris 8e Arrondissement,75,,,75108000BW0035,,,67,,,,,,,,,,1,2.0,Appartement,50.0,2.0,,,,,,2.322612,48.875627
165,2021-1680640,2021-04-08,1,Vente,355000.0,13.0,,RUE DU DELTA,2685,75009.0,75109,Paris 9e Arrondissement,75,,,75109000BC0092,,,77,24.5,,,,,,,,,1,2.0,Appartement,25.0,1.0,,,,,,2.347817,48.882214
166,2021-1680643,2021-04-01,1,Vente,289000.0,14.0,,RUE LA CONDAMINE,5228,75017.0,75117,Paris 17e Arrondissement,75,,,75117000DK0048,,,13,25.02,,,,,,,,,1,2.0,Appartement,30.0,2.0,,,,,,2.323594,48.887787
167,2021-1680647,2021-03-24,1,Vente,375734.0,47.0,,RUE SAINT FERDINAND,8606,75017.0,75117,Paris 17e Arrondissement,75,,,75117000AF0042,,,13,34.8,,,,,,,,,1,2.0,Appartement,35.0,2.0,,,,,,2.286603,48.877119
168,2021-1680650,2021-03-31,1,Vente,1043000.0,50.0,,RUE DES MOINES,6401,75017.0,75117,Paris 17e Arrondissement,75,,,75117000DJ0024,,,19,73.69,,,,,,,,,1,2.0,Appartement,75.0,4.0,,,,,,2.320734,48.889776
169,2021-1680651,2021-03-15,1,Vente,485800.0,15.0,,RUE DES MARTYRS,6147,75009.0,75109,Paris 9e Arrondissement,75,,,75109000AG0036,,,4,40.01,,,,,,,,,1,2.0,Appartement,42.0,1.0,,,,,,2.339003,48.87793
170,2021-1680656,2021-03-30,1,Vente,948000.0,45.0,,QUAI DE LA SEINE,8912,75019.0,75119,Paris 19e Arrondissement,75,,,75119000AP0056,,,165,,,,,,,,,,1,2.0,Appartement,88.0,4.0,,,,,,2.373161,48.886801
171,2021-1680657,2021-03-24,1,Vente,120000.0,142.0,,RUE DE COURCELLES,2387,75017.0,75117,Paris 17e Arrondissement,75,,,75117000BJ0069,,,59,9.3,,,,,,,,,1,2.0,Appartement,11.0,1.0,,,,,,2.300373,48.882505
172,2021-1680667,2021-03-24,1,Vente,216000.0,11.0,,RUE FENELON,3569,75010.0,75110,Paris 10e Arrondissement,75,,,75110000AN0026,,,25,20.87,,,,,,,,,1,2.0,Appartement,21.0,1.0,,,,,,2.351201,48.878879
173,2021-1680670,2021-03-29,1,Vente,546000.0,149.0,,RUE LA FAYETTE,5240,75010.0,75110,Paris 10e Arrondissement,75,,,75110000AM0078,,,11,56.21,,,,,,,,,1,2.0,Appartement,51.0,3.0,,,,,,2.356395,48.879361
174,2021-1680671,2021-03-12,1,Vente,50.0,13.0,,RUE DES ARDENNES,0427,75019.0,75119,Paris 19e Arrondissement,75,,,75119000CS0012,,,65,,,,,,,,,,1,2.0,Appartement,26.0,2.0,,,,,,2.386152,48.888017
175,2021-1680673,2021-03-29,1,Vente,355400.0,38.0,,RUE RAMEY,8014,75018.0,75118,Paris 18e Arrondissement,75,,,75118000BU0035,,,90,31.03,,,,,,,,,1,2.0,Appartement,29.0,2.0,,,,,,2.346588,48.88971
176,2021-1680675,2021-03-30,1,Vente,300000.0,37.0,,RUE SAINTE-ANNE,8534,75001.0,75101,Paris 1er Arrondissement,75,,,75101000AW0022,,,104,25.81,,,,,,,,,1,2.0,Appartement,29.0,1.0,,,,,,2.335429,48.866466
177,2021-1680676,2021-03-24,1,Vente,435000.0,17.0,,RUE HERMEL,4617,75018.0,75118,Paris 18e Arrondissement,75,,,75118000BK0066,,,17,37.1,,,,,,,,,1,2.0,Appartement,36.0,3.0,,,,,,2.343898,48.890796
178,2021-1680681,2021-03-31,1,Vente,330000.0,85.0,,RUE DE LA VERRERIE,9704,75004.0,75104,Paris 4e Arrondissement,75,,,75104000AD0020,,,26,,,,,,,,,,1,2.0,Appartement,45.0,2.0,,,,,,2.350958,48.858362
179,2021-1680683,2021-03-31,1,Vente,580850.0,95.0,B,RUE DU MONT CENIS,6467,75018.0,75118,Paris 18e Arrondissement,75,,,75118000BH0066,,,9,46.6,,,,,,,,,1,2.0,Appartement,43.0,3.0,,,,,,2.344713,48.893752
180,2021-1680684,2021-04-01,1,Vente,242000.0,31.0,,BD ORNANO,6946,75018.0,75118,Paris 18e Arrondissement,75,,,75118000BF0131,,,48,26.19,,,,,,,,,1,2.0,Appartement,39.0,2.0,,,,,,2.347028,48.894201
181,2021-1680686,2021-04-08,1,Vente,340000.0,8.0,,RUE MEDERIC,6242,75017.0,75117,Paris 17e Arrondissement,75,,,75117000BL0010,,,33,29.66,,,,,,,,,1,2.0,Appartement,30.0,1.0,,,,,,2.303204,48.88031
182,2021-1680690,2021-03-04,1,Vente,281875.0,12.0,,RUE DES APENNINS,0396,75017.0,75117,Paris 17e Arrondissement,75,,,75117000DI0158,,,22,27.47,,,,,,,,,1,2.0,Appartement,35.0,2.0,,,,,,2.321993,48.890426
183,2021-1680696,2021-03-18,1,Vente,449100.0,212.0,,RUE LA FAYETTE,5240,75010.0,75110,Paris 10e Arrondissement,75,,,75110000BX0019,,,60,10.03,,,,,,,,,1,2.0,Appartement,10.0,1.0,,,,,,2.367029,48.881696
184,2021-1680697,2021-03-25,1,Vente,1000.0,108.0,,AV JEAN JAURES,4903,75019.0,75119,Paris 19e Arrondissement,75,,,75119000AX0030,,,15,,,,,,,,,,1,2.0,Appartement,59.0,4.0,,,,,,2.380634,48.885343
185,2021-1680698,2021-03-31,1,Vente,243000.0,41.0,,RUE DU GENERAL FOY,4041,75008.0,75108,Paris 8e Arrondissement,75,,,75108000CG0076,,,101,,,,,,,,,,1,2.0,Appartement,14.0,1.0,,,,,,2.316441,48.880103
186,2021-1680699,2021-03-25,1,Vente,381000.0,5.0,,AV CLAUDE VELLEFAUX,2088,75010.0,75110,Paris 10e Arrondissement,75,,,75110000BM0060,,,43,36.29,,,,,,,,,1,2.0,Appartement,36.0,2.0,,,,,,2.370006,48.874673
187,2021-1680700,2021-03-25,1,Vente,95000.0,8.0,,ALL LOUISE LABE,5781,75019.0,75119,Paris 19e Arrondissement,75,,,75119000EE0016,,,261,14.7,,,,,,,,,1,2.0,Appartement,15.0,1.0,,,,,,2.377983,48.875228
188,2021-1680703,2021-03-19,1,Vente,436000.0,7.0,,RUE DE L AGENT BAILLY,0090,75009.0,75109,Paris 9e Arrondissement,75,,,75109000AZ0044,,,11,37.04,,,,,,,,,1,2.0,Appartement,35.0,2.0,,,,,,2.341662,48.878265
189,2021-1680706,2021-03-10,1,Vente,200000.0,40.0,,RUE DE LABORDE,5200,75008.0,75108,Paris 8e Arrondissement,75,,,75108000CI0068,,,84,,,,,,,,,,1,2.0,Appartement,17.0,1.0,,,,,,2.317096,48.875756
190,2021-1680707,2021-03-15,1,Vente,550000.0,7.0,,VLA DE L ERMITAGE,3325,75020.0,75120,Paris 20e Arrondissement,75,,,75120000AP0113,,,20,23.54,,,,,,,,,1,2.0,Appartement,25.0,2.0,,,,,,2.392383,48.870543
191,2021-1680716,2021-03-11,1,Vente,992000.0,31.0,,RUE BRUNEL,1337,75017.0,75117,Paris 17e Arrondissement,75,,,75117000AE0025,,,10,74.34,,,,,,,,,1,2.0,Appartement,75.0,4.0,,,,,,2.28745,48.878777
192,2021-1680717,2021-03-22,1,Vente,290000.0,12.0,,RUE DES ENVIERGES,3293,75020.0,75120,Paris 20e Arrondissement,75,,,75120000AC0089,,,7,33.28,,,,,,,,,1,2.0,Appartement,33.0,2.0,,,,,,2.38645,48.871625
193,2021-1680722,2021-04-06,1,Vente,350000.0,186.0,,RUE DE RIVOLI,8249,75001.0,75101,Paris 1er Arrondissement,75,,,75101000AX0089,,,77,18.1,,,,,,,,,1,2.0,Appartement,40.0,2.0,,,,,,2.333395,48.86363
194,2021-1680724,2021-03-26,1,Vente,250000.0,1.0,,RUE BOYER,1240,75020.0,75120,Paris 20e Arrondissement,75,,,75120000BW0055,,,153,38.18,,,,,,,,,1,2.0,Appartement,40.0,3.0,,,,,,2.392716,48.866961
195,2021-1680728,2021-03-17,1,Vente,490000.0,30.0,,AV SECRETAN,8896,75019.0,75119,Paris 19e Arrondissement,75,,,75119000AT0033,,,38,,,,,,,,,,1,2.0,Appartement,7.0,1.0,,,,,,2.372452,48.88132
196,2021-1680732,2021-04-06,1,Vente,140500.0,11.0,,RUE PIERRE BUDIN,7415,75018.0,75118,Paris 18e Arrondissement,75,,,75118000CF0198,,,2,12.01,,,,,,,,,1,2.0,Appartement,20.0,1.0,,,,,,2.352272,48.889587
197,2021-1680739,2021-03-18,1,Vente,1.0,283.0,,RUE SAINT-DENIS,8525,75002.0,75102,Paris 2e Arrondissement,75,,,75102000AP0018,,,134,,,,,,,,,,1,2.0,Appartement,10.0,1.0,,,,,,2.352019,48.869065
198,2021-1680740,2021-03-18,2,Vente,49001.0,283.0,,RUE SAINT-DENIS,8525,75002.0,75102,Paris 2e Arrondissement,75,,,75102000AP0018,,,125,6.16,,,,,,,,,1,2.0,Appartement,10.0,1.0,,,,,,2.352019,48.869065
199,2021-1680741,2021-03-22,1,Vente,305000.0,80.0,,BD ORNANO,6946,75018.0,75118,Paris 18e Arrondissement,75,,,75118000BD0032,,,4,42.67,,,,,,,,,1,2.0,Appartement,36.0,2.0,,,,,,2.345397,48.89717
200,2021-1680751,2021-04-08,1,Vente,130000.0,19.0,,RUE BAUDELIQUE,0724,75018.0,75118,Paris 18e Arrondissement,75,,,75118000BG0049,,,7,21.49,,,,,,,,,1,2.0,Appartement,32.0,2.0,,,,,,2.347253,48.892932
201,2021-1680755,2021-03-31,1,Vente,524000.0,34.0,,RUE DU MONT CENIS,6467,75018.0,75118,Paris 18e Arrondissement,75,,,75118000BK0154,,,10,46.23,,,,,,,,,1,2.0,Appartement,46.0,2.0,,,,,,2.342992,48.889504
202,2021-1680769,2021-03-30,1,Vente,110000.0,11.0,,BD DE ROCHECHOUART,8288,75009.0,75109,Paris 9e Arrondissement,75,,,75109000BC0058,,,34,,,,,,,,,,1,2.0,Appartement,4.0,1.0,,,,,,2.348008,48.883234
203,2021-1680777,2021-03-15,1,Vente,175000.0,5.0,,RUE SAINTE MARTHE,8583,75010.0,75110,Paris 10e Arrondissement,75,,,75110000BM0071,,,1240,15.57,,,,,,,,,1,2.0,Appartement,14.0,1.0,,,,,,2.370668,48.87355
204,2021-1680780,2021-03-30,1,Vente,75000.0,30.0,,RUE DE MOSCOU,6573,75008.0,75108,Paris 8e Arrondissement,75,,,75108000CE0063,,,45,,,,,,,,,,1,2.0,Appartement,10.0,1.0,,,,,,2.323913,48.881252
205,2021-1680782,2021-03-19,1,Vente,205000.0,70.0,,RUE DE ROMAINVILLE,8333,75019.0,75119,Paris 19e Arrondissement,75,,,75119000DT0067,,,3,25.34,,,,,,,,,1,2.0,Appartement,24.0,1.0,,,,,,2.403227,48.877178
206,2021-1680790,2021-03-16,1,Vente,1144000.0,4.0,,RUE SAINT-SAUVEUR,8752,75002.0,75102,Paris 2e Arrondissement,75,,,75102000AM0039,,,68,103.21,,,,,,,,,1,2.0,Appartement,106.0,5.0,,,,,,2.350031,48.866045
207,2021-1680791,2021-03-26,1,Vente,620000.0,2.0,,AV DES TERNES,9202,75017.0,75117,Paris 17e Arrondissement,75,,,75117000AL0141,,,34,50.47,,,,,,,,,1,2.0,Appartement,51.0,2.0,,,,,,2.297064,48.878324
208,2021-1680792,2021-03-31,1,Vente,102500.0,3.0,,RUE ETIENNE DOLET,3388,75020.0,75120,Paris 20e Arrondissement,75,,,75120000AN0071,,,63,15.79,,,,,,,,,1,2.0,Appartement,16.0,1.0,,,,,,2.383294,48.867798
209,2021-1680793,2021-03-25,1,Vente,650000.0,106.0,,RUE VIEILLE DU TEMPLE,9783,75003.0,75103,Paris 3e Arrondissement,75,,,75103000AL0016,,,23,37.2,,,,,,,,,1,2.0,Appartement,42.0,2.0,,,,,,2.362709,48.860618
210,2021-1680800,2021-04-12,1,Vente,336950.0,11.0,,RUE MONTCALM,6463,75018.0,75118,Paris 18e Arrondissement,75,,,75118000AW0117,,,42,33.11,,,,,,,,,1,2.0,Appartement,27.0,2.0,,,,,,2.336128,48.892483
211,2021-1680801,2021-03-12,1,Vente,100.0,17.0,,RUE PELLEPORT,7228,75020.0,75120,Paris 20e Arrondissement,75,,,75120000CM0037,,,250,,,,,,,,,,1,2.0,Appartement,134.0,5.0,,,,,,2.404486,48.862617
212,2021-1680802,2021-03-12,2,Vente,500.0,17.0,,RUE PELLEPORT,7228,75020.0,75120,Paris 20e Arrondissement,75,,,75120000CM0037,,,252,,,,,,,,,,1,2.0,Appartement,81.0,3.0,,,,,,2.404486,48.862617
213,2021-1680803,2021-03-12,3,Vente,100.0,17.0,,RUE PELLEPORT,7228,75020.0,75120,Paris 20e Arrondissement,75,,,75120000CM0037,,,251,,,,,,,,,,1,2.0,Appartement,173.0,6.0,,,,,,2.404486,48.862617
214,2021-1680804,2021-04-08,1,Vente,180000.0,12.0,,RUE DU CAPITAINE FERBER,1500,75020.0,75120,Paris 20e Arrondissement,75,,,75120000BL0140,,,4,18.02,,,,,,,,,1,2.0,Appartement,18.0,1.0,,,,,,2.405342,48.86516
215,2021-1680805,2021-03-26,1,Vente,715400.0,2.0,,PL MARCEL AYME,6010,75018.0,75118,Paris 18e Arrondissement,75,,,75118000AU0064,,,36,50.6,,,,,,,,,1,2.0,Appartement,50.0,2.0,,,,,,2.337973,48.887731
216,2021-1680808,2021-03-19,1,Vente,157500.0,23.0,,RUE ETEX,3383,75018.0,75118,Paris 18e Arrondissement,75,,,75118000AL0120,,,27,14.08,,,,,,,,,1,2.0,Appartement,16.0,1.0,,,,,,2.327208,48.890973
217,2021-1680810,2021-04-08,1,Vente,447000.0,196.0,,BD DE CHARONNE,1887,75020.0,75120,Paris 20e Arrondissement,75,,,75120000CS0020,,,13,57.1,,,,,,,,,1,2.0,Appartement,55.0,3.0,,,,,,2.391695,48.858152
218,2021-1680813,2021-03-19,1,Vente,1045390.0,22.0,B,RUE LAUGIER,5391,75017.0,75117,Paris 17e Arrondissement,75,,,75117000AM0054,,,57,83.42,,,,,,,,,1,2.0,Appartement,83.0,4.0,,,,,,2.296559,48.88101
219,2021-1680816,2021-04-01,1,Vente,455000.0,88.0,,RUE DE LEVIS,5642,75017.0,75117,Paris 17e Arrondissement,75,,,75117000CH0061,,,106,,,,,,,,,,1,2.0,Appartement,42.0,3.0,,,,,,2.312082,48.884918
220,2021-1680817,2021-03-24,1,Vente,190000.0,31.0,,RUE TRONCHET,9470,75008.0,75108,Paris 8e Arrondissement,75,,,75108000BS0075,,,153,16.99,,,,,,,,,1,2.0,Appartement,15.0,1.0,,,,,,2.326235,48.873009
221,2021-1680821,2021-03-25,1,Vente,840000.0,8.0,,RUE DU FBG POISSONNIERE,3512,75010.0,75110,Paris 10e Arrondissement,75,,,75110000AV0063,,,32,77.03,,,,,,,,,1,2.0,Appartement,77.0,4.0,,,,,,2.348461,48.871331
222,2021-1680823,2021-03-23,1,Vente,235000.0,90.0,,RUE DE LA CHAPELLE,1769,75018.0,75118,Paris 18e Arrondissement,75,,,75118000CV0009,,,9,34.0,,,,,,,,,1,2.0,Appartement,35.0,2.0,,,,,,2.359854,48.896904
223,2021-1680824,2021-03-17,1,Vente,453650.0,105.0,,RUE DE BELLEVILLE,0833,75019.0,75119,Paris 19e Arrondissement,75,,,75119000EB0058,,,26,46.84,,,,,,,,,1,2.0,Appartement,60.0,3.0,,,,,,2.386427,48.875033
224,2021-1680827,2021-03-26,1,Vente,110000.0,2.0,,RUE DES DARDANELLES,2569,75017.0,75117,Paris 17e Arrondissement,75,,,75117000AS0016,,,71,7.65,,,,,,,,,1,2.0,Appartement,10.0,1.0,,,,,,2.285344,48.882144
225,2021-1680828,2021-03-24,1,Vente,275000.0,153.0,,RUE MONTMARTRE,6513,75002.0,75102,Paris 2e Arrondissement,75,,,75102000AG0100,,,8,25.09,,,,,,,,,1,2.0,Appartement,24.0,1.0,,,,,,2.342464,48.870602
226,2021-1680831,2021-04-02,1,Vente,200000.0,42.0,,BD GOUVION ST-CYR,4252,75017.0,75117,Paris 17e Arrondissement,75,,,75117000AS0040,,,8,,,,,,,,,,1,2.0,Appartement,19.0,1.0,,,,,,2.286416,48.882739
227,2021-1680833,2021-03-16,1,Vente,95000.0,54.0,,RUE DU VERTBOIS,9711,75003.0,75103,Paris 3e Arrondissement,75,,,75103000AB0084,,,115,11.17,,,,,,,,,1,2.0,Appartement,12.0,1.0,,,,,,2.356883,48.867453
228,2021-1680834,2021-04-09,1,Vente,85000.0,60.0,,RUE DES LOMBARDS,5738,75001.0,75101,Paris 1er Arrondissement,75,,,75101000AO0067,,,43,,,,,,,,,,1,2.0,Appartement,8.0,1.0,,,,,,2.347777,48.859956
229,2021-1680837,2021-04-02,1,Vente,95000.0,54.0,,RUE DE LA JONQUIERE,5273,75017.0,75117,Paris 17e Arrondissement,75,,,75117000DN0026,,,302,21.7,,,,,,,,,1,2.0,Appartement,27.0,1.0,,,,,,2.322575,48.893899
230,2021-1680843,2021-03-29,1,Vente,832400.0,30.0,,RUE LEMERCIER,5503,75017.0,75117,Paris 17e Arrondissement,75,,,75117000CN0009,,,31,,,,,,,,,,1,2.0,Appartement,50.0,2.0,,,,,,2.323908,48.886807
231,2021-1680846,2021-04-08,1,Vente,105000.0,12.0,,RUE COMMINES,2249,75003.0,75103,Paris 3e Arrondissement,75,,,75103000AK0019,,,101,9.09,,,,,,,,,1,2.0,Appartement,9.0,1.0,,,,,,2.365951,48.861836
232,2021-1680849,2021-03-23,1,Vente,320000.0,44.0,,RUE DES ANNELETS,0358,75019.0,75119,Paris 19e Arrondissement,75,,,75119000DZ0052,,,7,35.15,,,,,,,,,1,2.0,Appartement,34.0,2.0,,,,,,2.390023,48.878875
233,2021-1680854,2021-03-31,1,Vente,355000.0,11.0,B,RUE COYSEVOX,2418,75018.0,75118,Paris 18e Arrondissement,75,,,75118000AJ0048,,,2,,,,,,,,,,1,2.0,Appartement,35.0,2.0,,,,,,2.329392,48.891518
234,2021-1680855,2021-04-08,1,Vente,166520.0,1.0,,RUE DE MARSEILLE,6122,75010.0,75110,Paris 10e Arrondissement,75,,,75110000BE0019,,,14,10.69,,,,,,,,,1,2.0,Appartement,20.0,1.0,,,,,,2.362646,48.871428
235,2021-1680856,2021-03-17,1,Vente,180000.0,58.0,,RUE DE MEAUX,6236,75019.0,75119,Paris 19e Arrondissement,75,,,75119000ES0010,,,19,20.31,,,,,,,,,1,2.0,Appartement,18.0,1.0,,,,,,2.374605,48.881953
236,2021-1680865,2021-04-01,1,Vente,490240.0,60.0,,RUE DES MATHURINS,6176,75008.0,75108,Paris 8e Arrondissement,75,,,75108000BT0033,,,9,,,,,,,,,,1,2.0,Appartement,37.0,2.0,,,,,,2.321879,48.87354
237,2021-1680868,2021-04-02,1,Vente,25000.0,40.0,,RUE DU RUISSEAU,8436,75018.0,75118,Paris 18e Arrondissement,75,,,75118000BH0125,,,38,5.48,,,,,,,,,1,2.0,Appartement,2.0,0.0,,,,,,2.340647,48.893496
238,2021-1680872,2021-03-26,1,Vente,487500.0,53.0,,RUE AU MAIRE,5927,75003.0,75103,Paris 3e Arrondissement,75,,,75103000AD0030,,,4,40.03,,,,,,,,,1,2.0,Appartement,40.0,2.0,,,,,,2.354839,48.864831
239,2021-1680873,2021-03-24,1,Vente,230000.0,63.0,,RUE DES VINAIGRIERS,9848,75010.0,75110,Paris 10e Arrondissement,75,,,75110000BA0039,,,39,24.5,,,,,,,,,1,2.0,Appartement,26.0,2.0,,,,,,2.35831,48.873139
240,2021-1680874,2021-04-09,1,Vente,320000.0,3.0,,RUE CARPEAUX,1567,75018.0,75118,Paris 18e Arrondissement,75,,,75118000AL0036,,,9,30.1,,,,,,,,,1,2.0,Appartement,30.0,2.0,,,,,,2.329446,48.890367
241,2021-1680877,2021-03-17,1,Vente,265450.0,262.0,,RUE SAINT-HONORE,8635,75001.0,75101,Paris 1er Arrondissement,75,,,75101000AX0103,,,62,19.1,,,,,,,,,1,2.0,Appartement,24.0,1.0,,,,,,2.333623,48.864394
242,2021-1680880,2021-04-01,1,Vente,80000.0,27.0,,RUE DUSSOUBS,3055,75002.0,75102,Paris 2e Arrondissement,75,,,75102000AM0024,,,75,19.18,,,,,,,,,1,2.0,Appartement,19.0,1.0,,,,,,2.348876,48.866271
243,2021-1680883,2021-03-23,1,Vente,230000.0,29.0,,RUE DE BELLEFOND,0827,75009.0,75109,Paris 9e Arrondissement,75,,,75109000BF0018,,,8,19.35,,,,,,,,,1,2.0,Appartement,22.0,1.0,,,,,,2.346413,48.877644
244,2021-1680886,2021-03-30,1,Vente,208560.0,31.0,B,RUE FESSART,3625,75019.0,75119,Paris 19e Arrondissement,75,,,75119000EB0036,,,14,,,,,,,,,,1,2.0,Appartement,26.0,2.0,,,,,,2.385713,48.876629
245,2021-1680891,2021-03-30,1,Vente,240000.0,13.0,,RUE ALEXANDRE PARODI,0159,75010.0,75110,Paris 10e Arrondissement,75,,,75110000BW0034,,,10,24.42,,,,,,,,,1,2.0,Appartement,21.0,1.0,,,,,,2.365208,48.879797
246,2021-1680892,2021-04-09,1,Vente,70000.0,6.0,,RUE YVONNE LE TAC,9991,75018.0,75118,Paris 18e Arrondissement,75,,,75118000BO0117,,,11,,,,,,,,,,1,2.0,Appartement,23.0,2.0,,,,,,2.340967,48.884239
247,2021-1680897,2021-04-01,1,Vente,675875.0,2.0,,RUE HERMANN LACHAPELLE,4614,75018.0,75118,Paris 18e Arrondissement,75,,,75118000BW0129,,,11,63.42,,,,,,,,,1,2.0,Appartement,63.0,4.0,,,,,,2.35144,48.894193
248,2021-1680903,2021-03-25,1,Vente,793400.0,159.0,,BD MALESHERBES,5951,75017.0,75117,Paris 17e Arrondissement,75,,,75117000BS0021,,,22,66.74,,,,,,,,,1,2.0,Appartement,70.0,3.0,,,,,,2.306221,48.885543
249,2021-1680913,2021-04-02,1,Vente,480000.0,8.0,,RUE DES FILLES DU CALVAIRE,3643,75003.0,75103,Paris 3e Arrondissement,75,,,75103000AK0011,,,11,38.81,,,,,,,,,1,2.0,Appartement,42.0,2.0,,,,,,2.365539,48.862243
250,2021-1680915,2021-04-08,1,Vente,650000.0,1.0,,SQ DE VERDUN,9673,75010.0,75110,Paris 10e Arrondissement,75,,,75110000BR0044,,,508,69.96,,,,,,,,,1,2.0,Appartement,65.0,3.0,,,,,,2.362402,48.876209
251,2021-1680919,2021-03-24,1,Vente,1791283.0,11.0,,VIL PIERRE GINIER,7433,75018.0,75118,Paris 18e Arrondissement,75,,,75118000AO0014,,,71,218.45,,,,,,,,,1,2.0,Appartement,110.0,4.0,,,,,,2.32659,48.887488
252,2021-1680920,2021-04-07,1,Vente,152000.0,28.0,,RUE PIAT,7393,75020.0,75120,Paris 20e Arrondissement,75,,,75120000AC0023,,,144,15.06,,,,,,,,,1,2.0,Appartement,15.0,1.0,,,,,,2.385298,48.872041
254,2021-1680924,2021-04-12,1,Vente,770000.0,3.0,,RUE PAUL FEVAL,7157,75018.0,75118,Paris 18e Arrondissement,75,,,75118000BM0073,,,39,73.48,,,,,,,,,1,2.0,Appartement,75.0,2.0,,,,,,2.34159,48.88858
255,2021-1680925,2021-04-08,1,Vente,190000.0,67.0,,RUE D AVRON,0610,75020.0,75120,Paris 20e Arrondissement,75,,,75120000DP0022,,,28,21.5,,,,,,,,,1,2.0,Appartement,20.0,1.0,,,,,,2.403455,48.852544
256,2021-1680930,2021-03-30,1,Vente,120000.0,34.0,B,RUE SORBIER,9029,75020.0,75120,Paris 20e Arrondissement,75,,,75120000CB0017,,,90,,,,,,,,,,1,2.0,Appartement,24.0,2.0,,,,,,2.392238,48.865805
257,2021-1680937,2021-03-23,1,Vente,530000.0,10.0,,RUE DUPHOT,2999,75001.0,75101,Paris 1er Arrondissement,75,,,75101000BC0088,,,71,38.02,,,,,,,,,1,2.0,Appartement,41.0,2.0,,,,,,2.325977,48.868209
258,2021-1680939,2021-03-10,1,Vente,3243000.0,158.0,,AV DE CLICHY,2112,75017.0,75117,Paris 17e Arrondissement,75,,,75117000DH0017,,,40,,,,,,,,,,1,2.0,Appartement,26.0,2.0,,,,,,2.319099,48.891635
259,2021-1680942,2021-04-09,1,Vente,343680.0,49.0,,RUE BELGRAND,0817,75020.0,75120,Paris 20e Arrondissement,75,,,75120000BI0161,,,109,37.05,,,,,,,,,1,2.0,Appartement,40.0,2.0,,,,,,2.408254,48.864673
260,2021-1680946,2021-04-01,1,Vente,325000.0,12.0,,RUE PIERRE BUDIN,7415,75018.0,75118,Paris 18e Arrondissement,75,,,75118000CF0014,,,5,,,,,,,,,,1,2.0,Appartement,32.0,2.0,,,,,,2.35226,48.88989
261,2021-1680947,2021-04-12,1,Vente,375000.0,42.0,,RUE POLONCEAU,7580,75018.0,75118,Paris 18e Arrondissement,75,,,75118000CG0189,,,20,,,,,,,,,,1,2.0,Appartement,26.0,1.0,,,,,,2.351301,48.886122
262,2021-1680955,2021-03-31,1,Vente,535000.0,10.0,,RUE PAUL ALBERT,7113,75018.0,75118,Paris 18e Arrondissement,75,,,75118000BL0114,,,10,41.78,,,,,,,,,1,2.0,Appartement,42.0,3.0,,,,,,2.345272,48.886744
263,2021-1680957,2021-04-01,1,Vente,1000.0,67.0,,RUE D AVRON,0610,75020.0,75120,Paris 20e Arrondissement,75,,,75120000DP0022,,,34,,,,,,,,,,1,2.0,Appartement,24.0,1.0,,,,,,2.403455,48.852544
264,2021-1680966,2021-03-30,1,Vente,251100.0,5.0,,RUE BACHELET,0624,75018.0,75118,Paris 18e Arrondissement,75,,,75118000BL0016,,,64,26.55,,,,,,,,,1,2.0,Appartement,27.0,1.0,,,,,,2.34482,48.888204
265,2021-1680970,2021-03-16,1,Vente,353500.0,48.0,,RUE DE L OURCQ,6980,75019.0,75119,Paris 19e Arrondissement,75,,,75119000BH0018,,,11,37.71,,,,,,,,,1,2.0,Appartement,35.0,2.0,,,,,,2.380363,48.892027
266,2021-1680972,2021-04-06,1,Vente,213300.0,41.0,,BD SERURIER,8939,75019.0,75119,Paris 19e Arrondissement,75,,,75119000DT0019,,,11,,,,,,,,,,1,2.0,Appartement,29.0,1.0,,,,,,2.403561,48.877884
267,2021-1680973,2021-03-23,1,Vente,250000.0,6.0,,RUE DE JARENTE,4831,75004.0,75104,Paris 4e Arrondissement,75,,,75104000AN0042,,,57,16.46,,,,,,,,,1,2.0,Appartement,20.0,2.0,,,,,,2.363185,48.856031
268,2021-1680981,2021-03-15,1,Vente,303000.0,177.0,,QUAI DE VALMY,9568,75010.0,75110,Paris 10e Arrondissement,75,,,75110000BW0018,,,5,25.03,,,,,,,,,1,2.0,Appartement,26.0,2.0,,,,,,2.366835,48.879948
269,2021-1680985,2021-04-08,1,Vente,147600.0,18.0,,RUE DE PANAMA,7024,75018.0,75118,Paris 18e Arrondissement,75,,,75118000CF0137,,,65,24.25,,,,,,,,,1,2.0,Appartement,25.0,2.0,,,,,,2.351798,48.888032
270,2021-1680987,2021-03-18,1,Vente,207547.0,3.0,,RUE DE LA FIDELITE,3638,75010.0,75110,Paris 10e Arrondissement,75,,,75110000AQ0054,,,95,25.38,,,,,,,,,1,2.0,Appartement,25.0,2.0,,,,,,2.356528,48.874227
271,2021-1680988,2021-04-02,1,Vente,350000.0,10.0,,RUE DE ROCHECHOUART,8289,75009.0,75109,Paris 9e Arrondissement,75,,,75109000BF0067,,,46,32.55,,,,,,,,,1,2.0,Appartement,34.0,2.0,,,,,,2.345008,48.877038
272,2021-1680992,2021-03-17,1,Vente,569793.0,10.0,B,RUE LAMARTINE,5291,75009.0,75109,Paris 9e Arrondissement,75,,,75109000AZ0119,,,5,,,,,,,,,,1,2.0,Appartement,90.0,3.0,,,,,,2.343226,48.876724
273,2021-1681005,2021-04-10,1,Vente,168650.0,20.0,,RUE BEAUBOURG,0759,75004.0,75104,Paris 4e Arrondissement,75,,,75104000AG0001,,,22,16.4,,,,,,,,,1,2.0,Appartement,16.0,1.0,,,,,,2.353571,48.860985
274,2021-1681009,2021-03-25,1,Vente,297000.0,14.0,,RUE DE BEAUCE,0761,75003.0,75103,Paris 3e Arrondissement,75,,,75103000AI0082,,,33,23.5,,,,,,,,,1,2.0,Appartement,24.0,1.0,,,,,,2.361344,48.862857
275,2021-1681011,2021-03-25,1,Vente,259000.0,85.0,,RUE PETIT,7314,75019.0,75119,Paris 19e Arrondissement,75,,,75119000CY0118,,,2037,26.04,,,,,,,,,1,2.0,Appartement,26.0,1.0,,,,,,2.391326,48.886402
276,2021-1681013,2021-03-25,1,Vente,220000.0,23.0,,AV SECRETAN,8896,75019.0,75119,Paris 19e Arrondissement,75,,,75119000AT0023,,,11,21.33,,,,,,,,,1,2.0,Appartement,18.0,1.0,,,,,,2.372487,48.88183
277,2021-1681018,2021-03-26,1,Vente,1033000.0,36.0,,BD DE CLICHY,2113,75018.0,75118,Paris 18e Arrondissement,75,,,75118000AR0070,,,6,81.84,,,,,,,,,1,2.0,Appartement,72.0,4.0,,,,,,2.336439,48.882962
278,2021-1681024,2021-04-01,1,Vente,1220000.0,33.0,,BD SAINT MARTIN,8692,75003.0,75103,Paris 3e Arrondissement,75,,,75103000AB0024,,,20,84.06,,,,,,,,,1,2.0,Appartement,75.0,4.0,,,,,,2.358131,48.868305
279,2021-1681026,2021-04-02,1,Vente,275000.0,9.0,,RUE CAROLUS DURAN,1563,75019.0,75119,Paris 19e Arrondissement,75,,,75119000DV0019,,,25,,,,,,,,,,1,2.0,Appartement,38.0,2.0,,,,,,2.401337,48.878147
280,2021-1681027,2021-03-26,1,Vente,281000.0,127.0,,AV SIMON BOLIVAR,8978,75019.0,75119,Paris 19e Arrondissement,75,,,75119000ET0007,,,10,32.08,,,,,,,,,1,2.0,Appartement,32.0,2.0,,,,,,2.373547,48.880776
281,2021-1681028,2021-03-24,1,Vente,290000.0,19.0,,RUE GERMAIN PILON,4176,75018.0,75118,Paris 18e Arrondissement,75,,,75118000AR0091,,,102,,,,,,,,,,1,2.0,Appartement,20.0,1.0,,,,,,2.336439,48.883943
282,2021-1681029,2021-03-26,1,Vente,174290.0,11.0,,PAS CARDINET,1549,75017.0,75117,Paris 17e Arrondissement,75,,,75117000CG0114,,,9,,,,,,,,,,1,2.0,Appartement,24.0,1.0,,,,,,2.311012,48.886004
283,2021-1681030,2021-03-23,1,Vente,249000.0,189.0,,RUE SAINT-DENIS,8525,75002.0,75102,Paris 2e Arrondissement,75,,,75102000AM0043,,,18,,,,,,,,,,1,2.0,Appartement,23.0,1.0,,,,,,2.350142,48.866268
284,2021-1681036,2021-04-02,1,Vente,380.0,26.0,,RUE FEUTRIER,3632,75018.0,75118,Paris 18e Arrondissement,75,,,75118000BL0122,,,56,,,,,,,,,,1,2.0,Appartement,25.0,1.0,,,,,,2.34599,48.887152
285,2021-1681037,2021-04-02,1,Vente,3500.0,59.0,,AV FRANKLIN D ROOSEVELT,3824,75008.0,75108,Paris 8e Arrondissement,75,,,75108000BI0020,,,12,,,,,,,,,,1,2.0,Appartement,170.0,6.0,,,,,,2.309778,48.871433
286,2021-1681052,2021-04-06,1,Vente,141240.0,31.0,,BD ORNANO,6946,75018.0,75118,Paris 18e Arrondissement,75,,,75118000BF0131,,,29,16.17,,,,,,,,,1,2.0,Appartement,20.0,1.0,,,,,,2.347028,48.894201
287,2021-1681058,2021-04-01,1,Vente,2173700.0,50.0,,RUE D ABOUKIR,0040,75002.0,75102,Paris 2e Arrondissement,75,,,75102000AJ0073,,,258,153.51,,,,,,,,,1,2.0,Appartement,150.0,3.0,,,,,,2.345781,48.867084
288,2021-1681059,2021-04-09,1,Vente,150000.0,12.0,,RUE DU GENERAL HENRYS,4047,75017.0,75117,Paris 17e Arrondissement,75,,,75117000DQ0020,,,121,20.1,,,,,,,,,1,2.0,Appartement,26.0,1.0,,,,,,2.326236,48.897246
289,2021-1681065,2021-03-31,1,Vente,342000.0,108.0,,RUE DES PYRENEES,7904,75020.0,75120,Paris 20e Arrondissement,75,,,75120000CY0023,,,22,38.65,,,,,,,,,1,2.0,Appartement,35.0,2.0,,,,,,2.404941,48.856533
290,2021-1681071,2021-04-08,1,Vente,800000.0,2.0,,RUE BIOT,0976,75017.0,75117,Paris 17e Arrondissement,75,,,75117000CM0128,,,20,63.3,,,,,,,,,1,2.0,Appartement,60.0,3.0,,,,,,2.32682,48.883883
291,2021-1681074,2021-04-01,1,Vente,1050000.0,33.0,,BD SAINT MARTIN,8692,75003.0,75103,Paris 3e Arrondissement,75,,,75103000AB0024,,,22,82.55,,,,,,,,,1,2.0,Appartement,85.0,4.0,,,,,,2.358131,48.868305
292,2021-1681077,2021-04-09,1,Vente,481500.0,9.0,B,RUE PAUL FEVAL,7157,75018.0,75118,Paris 18e Arrondissement,75,,,75118000BM0077,,,6,39.13,,,,,,,,,1,2.0,Appartement,38.0,2.0,,,,,,2.341102,48.888723
293,2021-1681078,2021-04-07,1,Vente,150000.0,4.0,,RUE DE CHEROY,1984,75017.0,75117,Paris 17e Arrondissement,75,,,75117000CK0082,,,8,14.4,,,,,,,,,1,2.0,Appartement,14.0,1.0,,,,,,2.31866,48.882379
294,2021-1681080,2021-03-26,1,Vente,228020.0,65.0,,RUE D AVRON,0610,75020.0,75120,Paris 20e Arrondissement,75,,,75120000DP0021,,,101,21.7,,,,,,,,,1,2.0,Appartement,22.0,1.0,,,,,,2.40322,48.852433
295,2021-1681081,2021-04-08,1,Vente,364000.0,153.0,,QUAI DE VALMY,9568,75010.0,75110,Paris 10e Arrondissement,75,,,75110000BS0042,,,6,30.68,,,,,,,,,1,2.0,Appartement,31.0,2.0,,,,,,2.365499,48.878022
296,2021-1681087,2021-04-07,1,Vente,450000.0,55.0,,RUE DE CLIGNANCOURT,2118,75018.0,75118,Paris 18e Arrondissement,75,,,75118000BT0016,,,17,,,,,,,,,,1,2.0,Appartement,30.0,2.0,,,,,,2.347594,48.887542
297,2021-1681102,2021-04-14,1,Vente,521400.0,9.0,,RUE MANIN,5976,75019.0,75119,Paris 19e Arrondissement,75,,,75119000EV0032,,,75,43.06,,,,,,,,,1,2.0,Appartement,43.0,3.0,,,,,,2.378314,48.877095
298,2021-1681103,2021-03-30,1,Vente,300000.0,50.0,,RUE DU CHATEAU LANDON,1924,75010.0,75110,Paris 10e Arrondissement,75,,,75110000AF0092,,,69,35.67,,,,,,,,,1,2.0,Appartement,17.0,1.0,,,,,,2.364353,48.883373
299,2021-1681108,2021-04-02,1,Vente,350000.0,13.0,,RUE GALLERON,3925,75020.0,75120,Paris 20e Arrondissement,75,,,75120000CX0101,,,8,,,,,,,,,,1,2.0,Appartement,30.0,2.0,,,,,,2.404378,48.859174
300,2021-1681114,2021-03-25,1,Vente,680000.0,72.0,,QUAI DE JEMMAPES,4964,75010.0,75110,Paris 10e Arrondissement,75,,,75110000BE0068,,,12,,,,,,,,,,1,2.0,Appartement,57.0,3.0,,,,,,2.365771,48.871469
301,2021-1681117,2021-04-06,1,Vente,310000.0,13.0,,RUE GALLERON,3925,75020.0,75120,Paris 20e Arrondissement,75,,,75120000CX0101,,,5,31.07,,,,,,,,,1,2.0,Appartement,31.0,1.0,,,,,,2.404378,48.859174
302,2021-1681119,2021-04-14,1,Vente,815000.0,28.0,,RUE EUGENE CARRIERE,3407,75018.0,75118,Paris 18e Arrondissement,75,,,75118000AK0025,,,14,58.2,,,,,,,,,1,2.0,Appartement,54.0,3.0,,,,,,2.333558,48.890789
303,2021-1681126,2021-03-31,1,Vente,1360000.0,28.0,,SQ DE CLIGNANCOURT,2119,75018.0,75118,Paris 18e Arrondissement,75,,,75118000BG0107,,,8,110.03,,,,,,,,,1,2.0,Appartement,103.0,4.0,,,,,,2.346676,48.893679
304,2021-1681130,2021-04-14,1,Vente,351415.0,71.0,,RUE TRUFFAUT,9487,75017.0,75117,Paris 17e Arrondissement,75,,,75117000CR0041,,,11,30.43,,,,,,,,,1,2.0,Appartement,36.0,2.0,,,,,,2.31863,48.887369
305,2021-1681134,2021-03-30,1,Vente,411000.0,9.0,,RUE DU PRE ST GERVAIS,7796,75019.0,75119,Paris 19e Arrondissement,75,,,75119000DX0025,,,46,52.15,,,,,,,,,1,2.0,Appartement,45.0,2.0,,,,,,2.392367,48.876141
306,2021-1681138,2021-04-13,1,Vente,150000.0,52.0,,RUE LAMARCK,5288,75018.0,75118,Paris 18e Arrondissement,75,,,75118000BK0163,,,26,12.88,,,,,,,,,1,2.0,Appartement,13.0,1.0,,,,,,2.342134,48.889431
307,2021-1681139,2021-04-07,1,Vente,403000.0,4.0,,RUE DES SAUSSAIES,8843,75008.0,75108,Paris 8e Arrondissement,75,,,75108000BN0058,,,56,31.0,,,,,,,,,1,2.0,Appartement,35.0,2.0,,,,,,2.317076,48.871015
308,2021-1681140,2021-03-29,1,Vente,240000.0,126.0,,RUE PELLEPORT,7228,75020.0,75120,Paris 20e Arrondissement,75,,,75120000BS0002,,,133,26.38,,,,,,,,,1,2.0,Appartement,26.0,1.0,,,,,,2.3997,48.870659
309,2021-1681144,2021-03-26,1,Vente,275000.0,65.0,,RUE DE PROVENCE,7866,75009.0,75109,Paris 9e Arrondissement,75,,,75109000AP0077,,,46,25.04,,,,,,,,,1,2.0,Appartement,26.0,2.0,,,,,,2.333438,48.874091
310,2021-1681145,2021-04-06,1,Vente,260000.0,14.0,,BD DE LA CHAPELLE,1765,75018.0,75118,Paris 18e Arrondissement,75,,,75118000DF0034,,,136,33.78,,,,,,,,,1,2.0,Appartement,33.0,2.0,,,,,,2.363817,48.884993
311,2021-1681146,2021-03-26,1,Vente,452210.0,77.0,,RUE LAMARCK,5288,75018.0,75118,Paris 18e Arrondissement,75,,,75118000AV0142,,,9,40.89,,,,,,,,,1,2.0,Appartement,39.0,2.0,,,,,,2.336433,48.89003
312,2021-1681149,2021-03-31,1,Vente,154000.0,5.0,,RUE PIERRE L ERMITE,7449,75018.0,75118,Paris 18e Arrondissement,75,,,75118000CH0067,,,25,20.4,,,,,,,,,1,2.0,Appartement,30.0,2.0,,,,,,2.354887,48.885568
313,2021-1681159,2021-03-23,1,Vente,250000.0,20.0,,RUE MANIN,5976,75019.0,75119,Paris 19e Arrondissement,75,,,75119000DH0020,,,416,24.03,,,,,,,,,1,2.0,Appartement,24.0,1.0,,,,,,2.387554,48.882675
314,2021-1681163,2021-03-24,1,Vente,330000.0,19.0,,BD BESSIERES,0935,75017.0,75117,Paris 17e Arrondissement,75,,,75117000DQ0218,,,18,40.12,,,,,,,,,1,2.0,Appartement,42.0,2.0,,,,,,2.326994,48.897343
315,2021-1681164,2021-04-12,1,Vente,400000.0,155.0,,RUE DU FAUBOURG SAINT HONORE,3518,75008.0,75108,Paris 8e Arrondissement,75,,,75108000BD0012,,,123,31.66,,,,,,,,,1,2.0,Appartement,33.0,1.0,,,,,,2.306669,48.874195
316,2021-1681165,2021-04-01,1,Vente,432550.0,16.0,,RUE GANNERON,3944,75018.0,75118,Paris 18e Arrondissement,75,,,75118000AO0087,,,43,34.74,,,,,,,,,1,2.0,Appartement,36.0,2.0,,,,,,2.327651,48.886295
317,2021-1681171,2021-04-15,1,Vente,295000.0,142.0,,RUE LEGENDRE,5473,75017.0,75117,Paris 17e Arrondissement,75,,,75117000DL0097,,,24,26.47,,,,,,,,,1,2.0,Appartement,28.0,2.0,,,,,,2.323781,48.889631
318,2021-1681172,2021-03-30,1,Vente,187000.0,121.0,,RUE MARCADET,5995,75018.0,75118,Paris 18e Arrondissement,75,,,75118000BK0015,,,5,17.88,,,,,,,,,1,2.0,Appartement,19.0,1.0,,,,,,2.341905,48.89111
319,2021-1681174,2021-03-30,1,Vente,200000.0,27.0,,RUE DE BRUXELLES,1345,75009.0,75109,Paris 9e Arrondissement,75,,,75109000AA0107,,,11,14.81,,,,,,,,,1,2.0,Appartement,14.0,1.0,,,,,,2.328149,48.882651
320,2021-1681175,2021-03-31,1,Vente,213600.0,65.0,,RUE GRENETA,4318,75002.0,75102,Paris 2e Arrondissement,75,,,75102000AL0006,,,11,13.81,,,,,,,,,1,2.0,Appartement,13.0,1.0,,,,,,2.34759,48.865452
321,2021-1681176,2021-02-23,1,Vente,159500.0,27.0,,RUE DU MAROC,6114,75019.0,75119,Paris 19e Arrondissement,75,,,75119000AB0062,,,63,15.65,,,,,,,,,1,2.0,Appartement,15.0,1.0,,,,,,2.367611,48.886587
322,2021-1681183,2021-04-07,1,Vente,600000.0,29.0,,RUE DE L ECHIQUIER,3084,75010.0,75110,Paris 10e Arrondissement,75,,,75110000AV0024,,,4,58.79,,,,,,,,,1,2.0,Appartement,60.0,3.0,,,,,,2.350326,48.871378
323,2021-1681194,2021-04-08,1,Vente,375000.0,12.0,,RUE CADET,1407,75009.0,75109,Paris 9e Arrondissement,75,,,75109000AX0172,,,54,31.41,,,,,,,,,1,2.0,Appartement,33.0,2.0,,,,,,2.343411,48.87447
324,2021-1681198,2021-04-01,1,Vente,1570000.0,179.0,,BD MALESHERBES,5951,75017.0,75117,Paris 17e Arrondissement,75,,,75117000BS0028,,,15,115.25,,,,,,,,,1,2.0,Appartement,25.0,1.0,,,,,,2.305005,48.886578
325,2021-1681200,2021-04-15,1,Vente,1145852.0,19.0,,RUE DU JOUR,5033,75001.0,75101,Paris 1er Arrondissement,75,,,75101000AR0107,,,120,82.84,,,,,,,,,1,2.0,Appartement,85.0,2.0,,,,,,2.344501,48.863896
326,2021-1681202,2021-03-26,1,Vente,218000.0,39.0,,RUE DE TORCY,9348,75018.0,75118,Paris 18e Arrondissement,75,,,75118000DA0112,,,30,24.25,,,,,,,,,1,2.0,Appartement,24.0,2.0,,,,,,2.360352,48.89081
327,2021-1681209,2021-03-30,1,Vente,1095950.0,8.0,,RUE DE BERNE,0900,75008.0,75108,Paris 8e Arrondissement,75,,,75108000CE0090,,,62,,,,,,,,,,1,2.0,Appartement,14.0,1.0,,,,,,2.323857,48.880627
328,2021-1681212,2021-03-29,1,Vente,285000.0,41.0,,RUE DES BOIS,1063,75019.0,75119,Paris 19e Arrondissement,75,,,75119000DV0003,,,18,39.86,,,,,,,,,1,2.0,Appartement,40.0,2.0,,,,,,2.399403,48.878765
329,2021-1681213,2021-03-23,1,Vente,80000.0,8.0,,AV VICTORIA,9765,75004.0,75104,Paris 4e Arrondissement,75,,,75104000AD0049,,,42,14.87,,,,,,,,,1,2.0,Appartement,14.0,1.0,,,,,,2.349688,48.857422
330,2021-1681214,2021-03-31,1,Vente,323000.0,163.0,,RUE SAINT MARTIN,8694,75003.0,75103,Paris 3e Arrondissement,75,,,75103000AU0057,,,103,23.67,,,,,,,,,1,2.0,Appartement,60.0,2.0,,,,,,2.351724,48.862491
331,2021-1681215,2021-03-22,1,Vente,685000.0,27.0,,RUE PIERRE FONTAINE,3713,75009.0,75109,Paris 9e Arrondissement,75,,,75109000AD0091,,,19,60.38,,,,,,,,,1,2.0,Appartement,55.0,4.0,,,,,,2.333271,48.882445
332,2021-1681220,2021-03-30,1,Vente,180000.0,262.0,B,RUE DES PYRENEES,7904,75020.0,75120,Paris 20e Arrondissement,75,,,75120000BV0114,,,227,16.44,,,,,,,,,1,2.0,Appartement,20.0,1.0,,,,,,2.395678,48.869663
333,2021-1681221,2021-03-22,1,Vente,539830.0,19.0,,RUE DU TEMPLE,9191,75004.0,75104,Paris 4e Arrondissement,75,,,75104000AF0017,,,17,,,,,,,,,,1,2.0,Appartement,34.0,2.0,,,,,,2.353209,48.858698
334,2021-1681223,2021-03-31,1,Vente,475780.0,95.0,,RUE COMPANS,2252,75019.0,75119,Paris 19e Arrondissement,75,,,75119000DI0009,,,29,44.77,,,,,,,,,1,2.0,Appartement,43.0,2.0,,,,,,2.388769,48.880933
335,2021-1681224,2021-03-26,1,Vente,165000.0,158.0,,RUE DAMREMONT,2534,75018.0,75118,Paris 18e Arrondissement,75,,,75118000AY0066,,,782,19.85,,,,,,,,,1,2.0,Appartement,20.0,1.0,,,,,,2.340625,48.896686
336,2021-1681231,2021-04-02,1,Vente,635000.0,19.0,,PL SAINT PIERRE,8731,75018.0,75118,Paris 18e Arrondissement,75,,,75118000BQ0036,,,90,48.77,,,,,,,,,1,2.0,Appartement,55.0,2.0,,,,,,2.34303,48.884002
337,2021-1681233,2021-04-02,1,Vente,15000.0,59.0,,AV FRANKLIN D ROOSEVELT,3824,75008.0,75108,Paris 8e Arrondissement,75,,,75108000BI0020,,,11,,,,,,,,,,1,2.0,Appartement,40.0,3.0,,,,,,2.309778,48.871433
338,2021-1681237,2021-04-07,1,Vente,115000.0,20.0,,RUE SALNEUVE,8792,75017.0,75117,Paris 17e Arrondissement,75,,,75117000CI0082,,,1,18.72,,,,,,,,,1,2.0,Appartement,20.0,1.0,,,,,,2.314389,48.885647
339,2021-1681242,2021-03-22,1,Vente,440900.0,104.0,,BD DE CLICHY,2113,75018.0,75118,Paris 18e Arrondissement,75,,,75118000AQ0026,,,6003,33.5,,,,,,,,,1,2.0,Appartement,38.0,2.0,,,,,,2.331772,48.884801
340,2021-1681244,2021-04-02,1,Vente,121100.0,30.0,,RUE PIAT,7393,75020.0,75120,Paris 20e Arrondissement,75,,,75120000AC0022,,,109,15.0,,,,,,,,,1,2.0,Appartement,12.0,1.0,,,,,,2.385209,48.872162
341,2021-1681246,2021-04-08,1,Vente,210000.0,13.0,,RUE DU FBG ST MARTIN,3522,75010.0,75110,Paris 10e Arrondissement,75,,,75110000AX0022,,,98,17.65,,,,,,,,,1,2.0,Appartement,17.0,1.0,,,,,,2.355439,48.869896
342,2021-1681247,2021-04-02,1,Vente,280000.0,99.0,,RUE ORDENER,6918,75018.0,75118,Paris 18e Arrondissement,75,,,75118000BJ0042,,,28,27.9,,,,,,,,,1,2.0,Appartement,18.0,1.0,,,,,,2.346648,48.891944
343,2021-1681252,2021-04-07,1,Vente,339500.0,35.0,,RUE D ALSACE,0249,75010.0,75110,Paris 10e Arrondissement,75,,,75110000AJ0019,,,15,44.71,,,,,,,,,1,2.0,Appartement,46.0,2.0,,,,,,2.358292,48.878723
344,2021-1681259,2021-03-24,1,Vente,160000.0,10.0,,RUE DE LA FELICITE,3549,75017.0,75117,Paris 17e Arrondissement,75,,,75117000CG0090,,,10,17.15,,,,,,,,,1,2.0,Appartement,17.0,1.0,,,,,,2.310048,48.886673
345,2021-1681263,2021-03-26,1,Vente,380000.0,342.0,,RUE DES PYRENEES,7904,75020.0,75120,Paris 20e Arrondissement,75,,,75120000AD0024,,,65,43.38,,,,,,,,,1,2.0,Appartement,44.0,2.0,,,,,,2.388517,48.874112
346,2021-1681276,2021-04-14,1,Vente,890000.0,10.0,,RUE FRANCAISE,3779,75002.0,75102,Paris 2e Arrondissement,75,,,75102000AL0114,,,19,64.07,,,,,,,,,1,2.0,Appartement,63.0,4.0,,,,,,2.347909,48.864527
347,2021-1681277,2021-03-22,1,Vente,724500.0,59.0,,BD BARBES,0662,75018.0,75118,Paris 18e Arrondissement,75,,,75118000BU0059,,,8,,,,,,,,,,1,2.0,Appartement,71.0,4.0,,,,,,2.349307,48.889635
348,2021-1681278,2021-04-06,1,Vente,350000.0,4.0,,RUE STEPHENSON,9092,75018.0,75118,Paris 18e Arrondissement,75,,,75118000CI0026,,,1,,,,,,,,,,1,2.0,Appartement,38.0,2.0,,,,,,2.356918,48.885485
349,2021-1681280,2021-04-01,1,Vente,642400.0,4.0,,RUE REMY DE GOURMONT,8124,75019.0,75119,Paris 19e Arrondissement,75,,,75119000EV0115,,,1,55.9,,,,,,,,,1,2.0,Appartement,57.0,2.0,,,,,,2.377525,48.877507
350,2021-1681282,2021-04-14,1,Vente,175304.0,25.0,,RUE DES DAMES,2523,75017.0,75117,Paris 17e Arrondissement,75,,,75117000CM0013,,,113,14.3,,,,,,,,,1,2.0,Appartement,14.0,1.0,,,,,,2.324411,48.884351
351,2021-1681284,2021-04-08,1,Vente,315000.0,41.0,,RUE DU COLISEE,2185,75008.0,75108,Paris 8e Arrondissement,75,,,75108000BI0047,,,16,24.79,,,,,,,,,1,2.0,Appartement,23.0,1.0,,,,,,2.311088,48.872088
352,2021-1681286,2021-04-06,1,Vente,560350.0,13.0,,RUE DULONG,2980,75017.0,75117,Paris 17e Arrondissement,75,,,75117000CJ0089,,,108,52.09,,,,,,,,,1,2.0,Appartement,52.0,3.0,,,,,,2.317392,48.883786
353,2021-1681287,2021-04-14,1,Vente,100000.0,16.0,,RUE DU GENERAL LASSALLE,4061,75019.0,75119,Paris 19e Arrondissement,75,,,75119000EC0004,,,6,38.2,,,,,,,,,1,2.0,Appartement,39.0,3.0,,,,,,2.37991,48.874122
354,2021-1681288,2021-04-15,1,Vente,1325000.0,11.0,,RUE EUGENE CARRIERE,3407,75018.0,75118,Paris 18e Arrondissement,75,,,75118000AK0092,,,9,107.12,,,,,,,,,1,2.0,Appartement,108.0,4.0,,,,,,2.332331,48.889649
355,2021-1681289,2021-04-09,1,Vente,433550.0,36.0,,RUE DULONG,2980,75017.0,75117,Paris 17e Arrondissement,75,,,75117000CJ0118,,,4,37.27,,,,,,,,,1,2.0,Appartement,40.0,2.0,,,,,,2.317141,48.884661
356,2021-1681291,2021-04-02,1,Vente,247500.0,4.0,,RUE DU RHIN,8183,75019.0,75119,Paris 19e Arrondissement,75,,,75119000EN0010,,,53,24.22,,,,,,,,,1,2.0,Appartement,23.0,1.0,,,,,,2.380936,48.884972
357,2021-1681293,2021-04-09,1,Vente,353000.0,61.0,,RUE DU FBG SAINT DENIS,3516,75010.0,75110,Paris 10e Arrondissement,75,,,75110000AU0049,,,104,32.19,,,,,,,,,1,2.0,Appartement,30.0,2.0,,,,,,2.353065,48.872323
358,2021-1681297,2021-04-07,1,Vente,235000.0,71.0,,BD DE LA VILLETTE,9838,75010.0,75110,Paris 10e Arrondissement,75,,,75110000BU0035,,,312,22.8,,,,,,,,,1,2.0,Appartement,24.0,2.0,,,,,,2.371324,48.876487
359,2021-1681299,2021-04-07,1,Vente,1045000.0,14.0,,PL CHARLES FILLION,1830,75017.0,75117,Paris 17e Arrondissement,75,,,75117000CR0011,,,5,76.98,,,,,,,,,1,2.0,Appartement,73.0,4.0,,,,,,2.317168,48.887939
360,2021-1681300,2021-03-26,1,Vente,1530000.0,22.0,,QUAI DES CELESTINS,1636,75004.0,75104,Paris 4e Arrondissement,75,,,75104000AQ0070,,,76,116.1,,,,,,,,,1,2.0,Appartement,120.0,3.0,,,,,,2.361386,48.85242
361,2021-1681301,2021-04-07,1,Vente,340000.0,9.0,,RUE CYRANO DE BERGERAC,2506,75018.0,75118,Paris 18e Arrondissement,75,,,75118000BK0017,,,17,32.63,,,,,,,,,1,2.0,Appartement,29.0,2.0,,,,,,2.341936,48.891012
362,2021-1681303,2021-04-07,1,Vente,459990.0,100.0,,AV DE FLANDRE,3659,75019.0,75119,Paris 19e Arrondissement,75,,,75119000AN0002,,,65,,,,,,,,,,1,2.0,Appartement,39.0,3.0,,,,,,2.377619,48.890647
363,2021-1681304,2021-04-08,1,Vente,277000.0,12.0,,RUE SAINTE MARTHE,8583,75010.0,75110,Paris 10e Arrondissement,75,,,75110000BL0213,,,1110,24.05,,,,,,,,,1,2.0,Appartement,20.0,2.0,,,,,,2.370858,48.873372
364,2021-1681307,2021-03-31,1,Vente,638000.0,110.0,,RUE DU FBG SAINT DENIS,3516,75010.0,75110,Paris 10e Arrondissement,75,,,75110000AQ0033,,,19,57.05,,,,,,,,,1,2.0,Appartement,55.0,3.0,,,,,,2.356257,48.875305
365,2021-1681308,2021-03-26,1,Vente,520630.0,314.0,,RUE SAINT MARTIN,8694,75003.0,75103,Paris 3e Arrondissement,75,,,75103000AB0147,,,65,38.73,,,,,,,,,1,2.0,Appartement,38.0,2.0,,,,,,2.355635,48.867972
366,2021-1681311,2021-03-23,1,Vente,760000.0,34.0,,RUE TRUFFAUT,9487,75017.0,75117,Paris 17e Arrondissement,75,,,75117000CO0031,,,36,,,,,,,,,,1,2.0,Appartement,54.0,2.0,,,,,,2.322154,48.885807
367,2021-1681312,2021-03-23,1,Vente,600000.0,34.0,,RUE TRUFFAUT,9487,75017.0,75117,Paris 17e Arrondissement,75,,,75117000CO0031,,,44,,,,,,,,,,1,2.0,Appartement,57.0,3.0,,,,,,2.322154,48.885807
368,2021-1681314,2021-03-24,1,Vente,4341500.0,11.0,,RUE ROBERT PLANQUETTE,8267,75018.0,75118,Paris 18e Arrondissement,75,,,75118000AR0137,,,378,,,,,,,,,,1,2.0,Appartement,50.0,2.0,,,,,,2.335506,48.884146
369,2021-1681316,2021-03-26,1,Vente,358000.0,16.0,,RUE DES POISSONNIERS,7564,75018.0,75118,Paris 18e Arrondissement,75,,,75118000CG0216,,,31,41.64,,,,,,,,,1,2.0,Appartement,37.0,3.0,,,,,,2.350895,48.886535
370,2021-1681320,2021-03-30,1,Vente,142000.0,7.0,,IMP ROBERT,8252,75018.0,75118,Paris 18e Arrondissement,75,,,75118000AX0124,,,9,16.8,,,,,,,,,1,2.0,Appartement,18.0,1.0,,,,,,2.338948,48.895112
371,2021-1681321,2021-04-06,1,Vente,478000.0,3.0,,RUE DU CHER,1972,75020.0,75120,Paris 20e Arrondissement,75,,,75120000CK0012,,,7,42.37,,,,,,,,,1,2.0,Appartement,41.0,2.0,,,,,,2.400141,48.864365
372,2021-1681325,2021-03-29,1,Vente,313000.0,11.0,,RUE DU MARCHE ST HONORE,6034,75001.0,75101,Paris 1er Arrondissement,75,,,75101000AZ0026,,,225,14.58,,,,,,,,,1,2.0,Appartement,14.0,1.0,,,,,,2.331016,48.866396
373,2021-1681329,2021-04-01,1,Vente,358000.0,45.0,,BD DE CLICHY,2113,75009.0,75109,Paris 9e Arrondissement,75,,,75109000AD0012,,,53,37.75,,,,,,,,,1,2.0,Appartement,35.0,2.0,,,,,,2.334106,48.882956
374,2021-1681330,2021-04-14,1,Vente,210000.0,3.0,,RUE DU PONCEAU,7590,75002.0,75102,Paris 2e Arrondissement,75,,,75102000AN0080,,,15,15.02,,,,,,,,,1,2.0,Appartement,17.0,1.0,,,,,,2.351992,48.866661
375,2021-1681334,2021-03-22,1,Vente,517000.0,4.0,,RUE DU LIEUTENANT CHAURE,5669,75020.0,75120,Paris 20e Arrondissement,75,,,75120000BN0087,,,105,48.28,,,,,,,,,1,2.0,Appartement,47.0,2.0,,,,,,2.407364,48.86754
376,2021-1681341,2021-04-08,1,Vente,180000.0,183.0,,RUE CHAMPIONNET,1723,75018.0,75118,Paris 18e Arrondissement,75,,,75118000AG0064,,,91,16.51,,,,,,,,,1,2.0,Appartement,20.0,1.0,,,,,,2.333817,48.894243
377,2021-1681343,2021-04-14,1,Vente,900000.0,12.0,,RUE NOTRE-DAME DE LORETTE,6832,75009.0,75109,Paris 9e Arrondissement,75,,,75109000AG0039,,,3,70.02,,,,,,,,,1,2.0,Appartement,68.0,3.0,,,,,,2.338657,48.877621
378,2021-1681346,2021-04-13,1,Vente,155000.0,27.0,,RUE LECLUSE,5447,75017.0,75117,Paris 17e Arrondissement,75,,,75117000CM0057,,,44,11.01,,,,,,,,,1,2.0,Appartement,14.0,1.0,,,,,,2.324999,48.884545
379,2021-1681347,2021-04-13,1,Vente,477000.0,48.0,,RUE CONDORCET,2268,75009.0,75109,Paris 9e Arrondissement,75,,,75109000BB0069,,,32,40.08,,,,,,,,,1,2.0,Appartement,38.0,2.0,,,,,,2.343493,48.880429
380,2021-1681350,2021-04-15,1,Vente,236000.0,31.0,,RUE DU DOCTEUR HEULIN,2840,75017.0,75117,Paris 17e Arrondissement,75,,,75117000DL0040,,,46,,,,,,,,,,1,2.0,Appartement,12.0,1.0,,,,,,2.323685,48.890647
381,2021-1681361,2021-04-06,1,Vente,520000.0,105.0,,RUE SAINT ANTOINE,8490,75004.0,75104,Paris 4e Arrondissement,75,,,75104000AM0039,,,6,46.35,,,,,,,,,1,2.0,Appartement,48.0,2.0,,,,,,2.361147,48.854847
382,2021-1681363,2021-03-29,1,Vente,469400.0,16.0,,RUE DES CLOYS,2157,75018.0,75118,Paris 18e Arrondissement,75,,,75118000BI0002,,,22,43.79,,,,,,,,,1,2.0,Appartement,48.0,3.0,,,,,,2.340382,48.892788
383,2021-1681364,2021-04-19,1,Vente,500000.0,132.0,,RUE DU FBG SAINT DENIS,3516,75010.0,75110,Paris 10e Arrondissement,75,,,75110000AK0016,,,169,47.1,,,,,,,,,1,2.0,Appartement,47.0,2.0,,,,,,2.356902,48.877186
384,2021-1681365,2021-04-13,1,Vente,220000.0,12.0,,RUE CLAIRAUT,2063,75017.0,75117,Paris 17e Arrondissement,75,,,75117000DJ0020,,,30,20.66,,,,,,,,,1,2.0,Appartement,24.0,1.0,,,,,,2.320701,48.88928
385,2021-1681367,2021-03-26,1,Vente,1522000.0,26.0,,RUE CADET,1407,75009.0,75109,Paris 9e Arrondissement,75,,,75109000AX0188,,,19,123.59,,,,,,,,,1,2.0,Appartement,123.0,5.0,,,,,,2.343874,48.875513
386,2021-1681376,2021-03-22,1,Vente,45000.0,185.0,,AV DE CLICHY,2112,75017.0,75117,Paris 17e Arrondissement,75,,,75117000DE0012,,,20,9.12,,,,,,,,,1,2.0,Appartement,10.0,2.0,,,,,,2.313823,48.893936
387,2021-1681380,2021-04-01,1,Vente,1000.0,10.0,,RUE DE PARADIS,7043,75010.0,75110,Paris 10e Arrondissement,75,,,75110000AP0061,,,156,,,,,,,,,,1,2.0,Appartement,80.0,4.0,,,,,,2.354498,48.874933
388,2021-1681381,2021-04-16,1,Vente,450000.0,25.0,,BD DE LA SOMME,9019,75017.0,75117,Paris 17e Arrondissement,75,,,75117000AY0001,,,30,40.12,,,,,,,,,1,2.0,Appartement,30.0,2.0,,,,,,2.290527,48.886399
389,2021-1681384,2021-04-14,1,Vente,1230000.0,3.0,,RUE DES DEUX BOULES,2762,75001.0,75101,Paris 1er Arrondissement,75,,,75101000AN0021,,,85,,,,,,,,,,1,2.0,Appartement,50.0,1.0,,,,,,2.345771,48.858831
390,2021-1681386,2021-04-09,1,Vente,150000.0,53.0,,RUE DE BELLEVILLE,0833,75019.0,75119,Paris 19e Arrondissement,75,,,75119000EC0099,,,119,,,,,,,,,,1,2.0,Appartement,35.0,2.0,,,,,,2.381144,48.873752
391,2021-1681388,2021-04-08,1,Vente,531500.0,30.0,,BD BARBES,0662,75018.0,75118,Paris 18e Arrondissement,75,,,75118000BS0067,,,10,48.75,,,,,,,,,1,2.0,Appartement,48.0,2.0,,,,,,2.349866,48.886081
392,2021-1681397,2021-03-22,1,Vente,195000.0,35.0,,RUE DE LA DUEE,2960,75020.0,75120,Paris 20e Arrondissement,75,,,75120000AS0019,,,4,16.74,,,,,,,,,1,2.0,Appartement,17.0,1.0,,,,,,2.397232,48.871877
393,2021-1681399,2021-04-14,1,Vente,420000.0,106.0,,QUAI DE JEMMAPES,4964,75010.0,75110,Paris 10e Arrondissement,75,,,75110000BC0072,,,26,,,,,,,,,,1,2.0,Appartement,108.0,4.0,,,,,,2.363898,48.873847
394,2021-1681401,2021-03-23,1,Vente,95000.0,149.0,,AV PARMENTIER,7067,75010.0,75110,Paris 10e Arrondissement,75,,,75110000BJ0041,,,4,12.9,,,,,,,,,1,2.0,Appartement,14.0,1.0,,,,,,2.369956,48.871058
395,2021-1681404,2021-04-09,1,Vente,521765.0,113.0,,RUE LA FAYETTE,5240,75010.0,75110,Paris 10e Arrondissement,75,,,75110000AN0044,,,8,50.51,,,,,,,,,1,2.0,Appartement,58.0,2.0,,,,,,2.352538,48.878312
396,2021-1681407,2021-04-15,1,Vente,424375.0,73.0,,RUE CHAMPIONNET,1723,75018.0,75118,Paris 18e Arrondissement,75,,,75118000BE0050,,,24,45.64,,,,,,,,,1,2.0,Appartement,41.0,3.0,,,,,,2.344471,48.895694
397,2021-1681410,2021-04-01,1,Vente,520000.0,88.0,,RUE DE LEVIS,5642,75017.0,75117,Paris 17e Arrondissement,75,,,75117000CH0061,,,124,47.58,,,,,,,,,1,2.0,Appartement,38.0,3.0,,,,,,2.312082,48.884918
398,2021-1681411,2021-04-14,1,Vente,517500.0,11.0,,RUE FAUVET,3532,75018.0,75118,Paris 18e Arrondissement,75,,,75118000AM0006,,,12,49.02,,,,,,,,,1,2.0,Appartement,39.0,3.0,,,,,,2.327143,48.889002
399,2021-1681415,2021-04-13,1,Vente,485000.0,,,QUAI DE LA GIRONDE,4197,75019.0,75119,Paris 19e Arrondissement,75,,,75119000BE0012,,,16,49.4,,,,,,,,,1,2.0,Appartement,49.0,3.0,,,,,,2.385375,48.892567
400,2021-1681425,2021-04-19,1,Vente,275000.0,176.0,,BD PEREIRE,7258,75017.0,75117,Paris 17e Arrondissement,75,,,75117000AQ0011,,,15,24.25,,,,,,,,,1,2.0,Appartement,23.0,2.0,,,,,,2.291168,48.882157
401,2021-1681427,2021-03-30,1,Vente,195000.0,8.0,,PL RHIN ET DANUBE,8185,75019.0,75119,Paris 19e Arrondissement,75,,,75119000DI0088,,,37,19.58,,,,,,,,,1,2.0,Appartement,24.0,1.0,,,,,,2.39317,48.881763
402,2021-1681439,2021-03-24,1,Vente,615000.0,32.0,,RUE LUCIEN SAMPAIX,5844,75010.0,75110,Paris 10e Arrondissement,75,,,75110000BC0016,,,7,58.82,,,,,,,,,1,2.0,Appartement,40.0,3.0,,,,,,2.361714,48.872957
403,2021-1681452,2021-04-15,1,Vente,560000.0,21.0,,RUE DE TURENNE,9506,75004.0,75104,Paris 4e Arrondissement,75,,,75104000AN0038,,,12,34.63,,,,,,,,,1,2.0,Appartement,36.0,1.0,,,,,,2.363741,48.856013
404,2021-1681456,2021-04-15,1,Vente,331000.0,6.0,,RUE LE REGRATTIER,5599,75004.0,75104,Paris 4e Arrondissement,75,,,75104000AV0093,,,9,21.02,,,,,,,,,1,2.0,Appartement,21.0,1.0,,,,,,2.354676,48.851911
405,2021-1681458,2021-04-12,1,Vente,313500.0,12.0,,RUE DE L ETOILE,3398,75017.0,75117,Paris 17e Arrondissement,75,,,75117000AK0126,,,36,27.05,,,,,,,,,1,2.0,Appartement,39.0,1.0,,,,,,2.295876,48.877175
406,2021-1681462,2021-03-31,1,Vente,619310.0,55.0,,RUE MONTMARTRE,6513,75002.0,75102,Paris 2e Arrondissement,75,,,75102000AK0086,,,54,43.98,,,,,,,,,1,2.0,Appartement,45.0,2.0,,,,,,2.344134,48.865842
407,2021-1681463,2021-04-14,1,Vente,625000.0,13.0,,RUE CAULAINCOURT,1614,75018.0,75118,Paris 18e Arrondissement,75,,,75118000AT0154,,,13,44.68,,,,,,,,,1,2.0,Appartement,45.0,3.0,,,,,,2.332752,48.88712
408,2021-1681464,2021-04-13,1,Vente,4965.0,22.0,,PAS DES RECOLLETS,8081,75010.0,75110,Paris 10e Arrondissement,75,,,75110000BB0041,,,336,,,,,,,,,,1,2.0,Appartement,53.0,3.0,,,,,,2.360792,48.874015
409,2021-1681466,2021-04-02,1,Vente,245000.0,11.0,,RUE DE ROCHECHOUART,8289,75009.0,75109,Paris 9e Arrondissement,75,,,75109000AZ0105,,,634,18.63,,,,,,,,,1,2.0,Appartement,19.0,1.0,,,,,,2.344047,48.87728
410,2021-1681468,2021-04-09,1,Vente,145000.0,3.0,,RUE DE GRANGE BATELIERE,4295,75009.0,75109,Paris 9e Arrondissement,75,,,75109000AU0056,,,243,13.05,,,,,,,,,1,2.0,Appartement,13.0,1.0,,,,,,2.342575,48.872866
411,2021-1681475,2021-04-13,1,Vente,800000.0,99.0,,AV JEAN JAURES,4903,75019.0,75119,Paris 19e Arrondissement,75,,,75119000AX0014,,,30,,,,,,,,,,1,2.0,Appartement,23.0,1.0,,,,,,2.380151,48.885682
412,2021-1681479,2021-03-24,1,Vente,1226000.0,49.0,,BD DE CLICHY,2113,75009.0,75109,Paris 9e Arrondissement,75,,,75109000AD0005,,,34,124.85,,,,,,,,,1,2.0,Appartement,124.0,4.0,,,,,,2.333807,48.883084
413,2021-1681480,2021-04-13,1,Vente,152000.0,12.0,,RUE DES TROIS FRERES,9462,75018.0,75118,Paris 18e Arrondissement,75,,,75118000BO0069,,,25,11.51,,,,,,,,,1,2.0,Appartement,16.0,1.0,,,,,,2.341416,48.884419
414,2021-1681482,2021-04-14,1,Vente,495000.0,6.0,,RUE DE LA BASTILLE,0715,75004.0,75104,Paris 4e Arrondissement,75,,,75104000AP0054,,,11,44.65,,,,,,,,,1,2.0,Appartement,47.0,2.0,,,,,,2.367956,48.853649
415,2021-1681484,2021-03-29,1,Vente,367000.0,25.0,,RUE DU BORREGO,1112,75020.0,75120,Paris 20e Arrondissement,75,,,75120000AW0082,,,28,39.05,,,,,,,,,1,2.0,Appartement,36.0,2.0,,,,,,2.399973,48.873413
416,2021-1681487,2021-03-24,1,Vente,326000.0,22.0,,RUE LA VIEUVILLE,5411,75018.0,75118,Paris 18e Arrondissement,75,,,75118000BO0099,,,5,25.89,,,,,,,,,1,2.0,Appartement,24.0,2.0,,,,,,2.340572,48.884666
417,2021-1681490,2021-04-02,1,Vente,769156.0,75.0,,RUE SAINT-HONORE,8635,75001.0,75101,Paris 1er Arrondissement,75,,,75101000AT0085,,,7,,,,,,,,,,1,2.0,Appartement,71.0,4.0,,,,,,2.344096,48.861015
418,2021-1681491,2021-04-20,1,Vente,92500.0,14.0,,RUE D ANNAM,0355,75020.0,75120,Paris 20e Arrondissement,75,,,75120000CC0039,,,235,9.75,,,,,,,,,1,2.0,Appartement,10.0,1.0,,,,,,2.394656,48.866732
419,2021-1681496,2021-04-16,1,Vente,786450.0,9.0,,RUE BRIDAINE,1292,75017.0,75117,Paris 17e Arrondissement,75,,,75117000CP0037,,,26,65.15,,,,,,,,,1,2.0,Appartement,65.0,2.0,,,,,,2.320403,48.885678
420,2021-1681500,2021-04-12,1,Vente,497470.0,237.0,,RUE MARCADET,5995,75018.0,75118,Paris 18e Arrondissement,75,,,75118000AJ0041,,,48,45.67,,,,,,,,,1,2.0,Appartement,45.0,2.0,,,,,,2.329824,48.892266
421,2021-1681503,2021-04-07,1,Vente,833000.0,18.0,,RUE DE BERNE,0900,75008.0,75108,Paris 8e Arrondissement,75,,,75108000CE0079,,,8,71.02,,,,,,,,,1,2.0,Appartement,80.0,3.0,,,,,,2.323392,48.881006
422,2021-1681509,2021-04-15,1,Vente,473000.0,128.0,,RUE ORDENER,6918,75018.0,75118,Paris 18e Arrondissement,75,,,75118000AX0181,,,40,,,,,,,,,,1,2.0,Appartement,50.0,3.0,,,,,,2.339013,48.893488
423,2021-1681513,2021-04-06,1,Vente,751450.0,9.0,,SQ GABRIEL FAURE,3899,75017.0,75117,Paris 17e Arrondissement,75,,,75117000CH0028,,,31,65.01,,,,,,,,,1,2.0,Appartement,74.0,3.0,,,,,,2.313017,48.885276
424,2021-1681515,2021-04-16,1,Vente,316000.0,111.0,,RUE DE BELLEVILLE,0833,75019.0,75119,Paris 19e Arrondissement,75,,,75119000EB0061,,,10,31.55,,,,,,,,,1,2.0,Appartement,33.0,2.0,,,,,,2.387025,48.874781
425,2021-1681518,2021-04-08,1,Vente,1.0,37.0,,RUE BROCHANT,1315,75017.0,75117,Paris 17e Arrondissement,75,,,75117000DI0021,,,66,,,,,,,,,,1,2.0,Appartement,26.0,2.0,,,,,,2.318988,48.89006
426,2021-1681528,2021-03-29,1,Vente,880000.0,58.0,,RUE MONTCALM,6463,75018.0,75118,Paris 18e Arrondissement,75,,,75118000AX0152,,,65,,,,,,,,,,1,2.0,Appartement,36.0,2.0,,,,,,2.340273,48.894168
427,2021-1681530,2021-04-13,1,Vente,234050.0,10.0,,RUE DU NIL,6783,75002.0,75102,Paris 2e Arrondissement,75,,,75102000AN0130,,,16,17.56,,,,,,,,,1,2.0,Appartement,19.0,1.0,,,,,,2.347643,48.867762
428,2021-1681533,2021-03-30,1,Vente,800000.0,22.0,,RUE GUERSANT,4376,75017.0,75117,Paris 17e Arrondissement,75,,,75117000AP0019,,,10,67.33,,,,,,,,,1,2.0,Appartement,68.0,3.0,,,,,,2.290302,48.880805
429,2021-1681537,2021-04-01,1,Vente,147500.0,2.0,B,RUE ROBERT PLANQUETTE,8267,75018.0,75118,Paris 18e Arrondissement,75,,,75118000AR0152,,,68,,,,,,,,,,1,2.0,Appartement,12.0,1.0,,,,,,2.334396,48.884867
430,2021-1681538,2021-03-23,1,Vente,90000.0,1.0,,IMP DES ANGLAIS,0345,75019.0,75119,Paris 19e Arrondissement,75,,,75119000AO0081,,,63,,,,,,,,,,1,2.0,Appartement,40.0,2.0,,,,,,2.376017,48.889039
431,2021-1681542,2021-04-16,1,Vente,4333980.5,106.0,,RUE VIEILLE DU TEMPLE,9783,75003.0,75103,Paris 3e Arrondissement,75,,,75103000AL0016,,,52,221.0,,,,,,,,,1,2.0,Appartement,240.0,7.0,,,,,,2.362709,48.860618
432,2021-1681554,2021-04-14,1,Vente,270000.0,10.0,,RUE CROIX DES PETITS CHAMPS,2453,75001.0,75101,Paris 1er Arrondissement,75,,,75101000AS0009,,,32,24.99,,,,,,,,,1,2.0,Appartement,23.0,1.0,,,,,,2.339853,48.862752
433,2021-1681555,2021-04-07,1,Vente,650000.0,43.0,,RUE VAUVENARGUES,9628,75018.0,75118,Paris 18e Arrondissement,75,,,75118000AH0039,,,2,105.02,,,,,,,,,1,2.0,Appartement,104.0,4.0,,,,,,2.33154,48.894891
434,2021-1681559,2021-04-09,1,Vente,198000.0,12.0,,RUE VOLTA,9905,75003.0,75103,Paris 3e Arrondissement,75,,,75103000AE0136,,,6,15.0,,,,,,,,,1,2.0,Appartement,15.0,1.0,,,,,,2.35714,48.864804
435,2021-1681560,2021-04-06,1,Vente,256000.0,29.0,,RUE VITRUVE,9888,75020.0,75120,Paris 20e Arrondissement,75,,,75120000CW0050,,,9,23.15,,,,,,,,,1,2.0,Appartement,25.0,1.0,,,,,,2.40329,48.85748
436,2021-1681564,2021-04-08,1,Vente,241707.0,76.0,,AV DES CHAMPS ELYSEES,1733,75008.0,75108,Paris 8e Arrondissement,75,,,75108000BG0009,,,334,,,,,,,,,,1,2.0,Appartement,28.0,1.0,,,,,,2.304678,48.871669
437,2021-1681567,2021-04-06,1,Vente,310500.0,56.0,,RUE DES PYRENEES,7904,75020.0,75120,Paris 20e Arrondissement,75,,,75120000DY0005,,,6,28.2,,,,,,,,,1,2.0,Appartement,28.0,2.0,,,,,,2.406394,48.852209
438,2021-1681571,2021-04-14,1,Vente,515000.0,32.0,,RUE BARON,0676,75017.0,75117,Paris 17e Arrondissement,75,,,75117000DN0008,,,43,53.3,,,,,,,,,1,2.0,Appartement,50.0,3.0,,,,,,2.323619,48.895429
439,2021-1681575,2021-04-07,1,Vente,352700.0,32.0,,RUE BARON,0676,75017.0,75117,Paris 17e Arrondissement,75,,,75117000DN0008,,,29,,,,,,,,,,1,2.0,Appartement,40.0,2.0,,,,,,2.323619,48.895429
440,2021-1681579,2021-04-15,1,Vente,736711.0,11.0,,RUE DU PERCHE,7248,75003.0,75103,Paris 3e Arrondissement,75,,,75103000AQ0050,,,64,50.25,,,,,,,,,1,2.0,Appartement,48.0,2.0,,,,,,2.360825,48.860798
441,2021-1681583,2021-04-06,1,Vente,693500.0,49.0,,RUE DE DOUAI,2909,75009.0,75109,Paris 9e Arrondissement,75,,,75109000AA0043,,,12,56.87,,,,,,,,,1,2.0,Appartement,47.0,3.0,,,,,,2.330764,48.882948
442,2021-1681588,2021-04-08,1,Vente,90000.0,9.0,,RUE CHAPPE,1773,75018.0,75118,Paris 18e Arrondissement,75,,,75118000BO0070,,,20,8.33,,,,,,,,,1,2.0,Appartement,9.0,1.0,,,,,,2.341417,48.884525
443,2021-1681590,2021-04-14,1,Vente,1500.0,87.0,,RUE SAINT-DENIS,8525,75001.0,75101,Paris 1er Arrondissement,75,,,75101000AP0041,,,21,,,,,,,,,,1,2.0,Appartement,70.0,3.0,,,,,,2.349117,48.861982
444,2021-1681593,2021-03-30,1,Vente,734094.0,5.0,,RUE ETIENNE JODELLE,3390,75018.0,75118,Paris 18e Arrondissement,75,,,75118000AO0015,,,5,63.08,,,,,,,,,1,2.0,Appartement,62.0,3.0,,,,,,2.326325,48.887746
445,2021-1681596,2021-03-26,1,Vente,796050.0,4.0,,RUE ROCROY,8295,75010.0,75110,Paris 10e Arrondissement,75,,,75110000AN0024,,,21,71.17,,,,,,,,,1,2.0,Appartement,70.0,3.0,,,,,,2.35088,48.878721
446,2021-1681598,2021-04-26,1,Vente,415000.0,26.0,,RUE LIGNER,5679,75020.0,75120,Paris 20e Arrondissement,75,,,75120000CT0043,,,8,,,,,,,,,,1,2.0,Appartement,37.0,3.0,,,,,,2.397876,48.857726
447,2021-1681610,2021-04-14,1,Vente,210000.0,11.0,,RUE LEON COGNIET,5538,75017.0,75117,Paris 17e Arrondissement,75,,,75117000BM0057,,,50,17.88,,,,,,,,,1,2.0,Appartement,12.0,1.0,,,,,,2.302368,48.8812
448,2021-1681611,2021-04-08,1,Vente,680000.0,19.0,,RUE DES PETITS CHAMPS,7348,75001.0,75101,Paris 1er Arrondissement,75,,,75101000AV0065,,,32,,,,,,,,,,1,2.0,Appartement,93.0,3.0,,,,,,2.337751,48.866431
449,2021-1681615,2021-04-16,1,Vente,400000.0,212.0,,RUE DU FBG ST MARTIN,3522,75010.0,75110,Paris 10e Arrondissement,75,,,75110000BW0055,,,6,43.08,,,,,,,,,1,2.0,Appartement,45.0,3.0,,,,,,2.364077,48.879554
450,2021-1681619,2021-04-16,1,Vente,55000.0,26.0,,RUE MARX DORMOY,6149,75018.0,75118,Paris 18e Arrondissement,75,,,75118000DF0088,,,5,12.65,,,,,,,,,1,2.0,Appartement,10.0,1.0,,,,,,2.359805,48.886273
451,2021-1681620,2021-04-15,1,Vente,760000.0,20.0,,RUE DE LA MICHODIERE,5302,75002.0,75102,Paris 2e Arrondissement,75,,,75102000AC0027,,,10,60.12,,,,,,,,,1,2.0,Appartement,63.0,2.0,,,,,,2.335299,48.870549
452,2021-1681621,2021-04-16,1,Vente,286400.0,7.0,,IMP SAINT-DENIS,8524,75002.0,75102,Paris 2e Arrondissement,75,,,75102000AM0111,,,12,25.78,,,,,,,,,1,2.0,Appartement,19.0,1.0,,,,,,2.349762,48.865524
453,2021-1681622,2021-04-07,1,Vente,977500.0,31.0,,RUE DES MARTYRS,6147,75009.0,75109,Paris 9e Arrondissement,75,,,75109000AG0026,,,3,113.6,,,,,,,,,1,2.0,Appartement,20.0,1.0,,,,,,2.339545,48.878781
454,2021-1681625,2021-04-09,1,Vente,112000.0,5.0,,BD SERURIER,8939,75019.0,75119,Paris 19e Arrondissement,75,,,75119000DT0036,,,4,13.85,,,,,,,,,1,2.0,Appartement,17.0,1.0,,,,,,2.406034,48.877386
455,2021-1681630,2021-04-08,1,Vente,270000.0,9.0,,RUE DU CLOS,2135,75020.0,75120,Paris 20e Arrondissement,75,,,75120000CY0086,,,69,29.9,,,,,,,,,1,2.0,Appartement,31.0,2.0,,,,,,2.40613,48.85691
456,2021-1681637,2021-04-12,1,Vente,323000.0,70.0,,RUE DE MOUZAIA,6622,75019.0,75119,Paris 19e Arrondissement,75,,,75119000DS0004,,,28,38.86,,,,,,,,,1,2.0,Appartement,45.0,2.0,,,,,,2.398786,48.879683
457,2021-1681648,2021-04-08,1,Vente,292000.0,12.0,,RUE DE SUEZ,9112,75018.0,75118,Paris 18e Arrondissement,75,,,75118000CG0005,,,21,37.9,,,,,,,,,1,2.0,Appartement,40.0,2.0,,,,,,2.351539,48.887474
458,2021-1681655,2021-04-14,1,Vente,341716.0,14.0,,RUE JOUYE ROUVE,5046,75020.0,75120,Paris 20e Arrondissement,75,,,75120000AB0057,,,21,29.26,,,,,,,,,1,2.0,Appartement,38.0,2.0,,,,,,2.382699,48.872669
459,2021-1681658,2021-04-14,1,Vente,760000.0,40.0,,RUE DES ABBESSES,0020,75018.0,75118,Paris 18e Arrondissement,75,,,75118000AS0144,,,53,,,,,,,,,,1,2.0,Appartement,80.0,4.0,,,,,,2.336644,48.885521
460,2021-1681661,2021-04-22,1,Vente,167250.0,10.0,,RUE DU JOUR,5033,75001.0,75101,Paris 1er Arrondissement,75,,,75101000AR0118,,,52,14.16,,,,,,,,,1,2.0,Appartement,15.0,1.0,,,,,,2.345291,48.863929
461,2021-1681662,2021-04-07,1,Vente,685000.0,47.0,,RUE DE DOUAI,2909,75009.0,75109,Paris 9e Arrondissement,75,,,75109000AA0044,,,7,55.03,,,,,,,,,1,2.0,Appartement,60.0,3.0,,,,,,2.330953,48.882913
462,2021-1681668,2021-04-08,1,Vente,204700.0,10.0,,RUE LETORT,5630,75018.0,75118,Paris 18e Arrondissement,75,,,75118000BH0031,,,46,27.1,,,,,,,,,1,2.0,Appartement,29.0,2.0,,,,,,2.343281,48.894007
463,2021-1681671,2021-04-14,1,Vente,20000.0,82.0,,RUE DOUDEAUVILLE,2921,75018.0,75118,Paris 18e Arrondissement,75,,,75118000BU0131,,,5133,,,,,,,,,,1,2.0,Appartement,38.0,1.0,,,,,,2.350473,48.888673
464,2021-1681673,2021-04-15,1,Vente,1410000.0,36.0,,BD DE CLICHY,2113,75018.0,75118,Paris 18e Arrondissement,75,,,75118000AR0070,,,11,96.68,,,,,,,,,1,2.0,Appartement,100.0,3.0,,,,,,2.336439,48.882962
465,2021-1681676,2021-04-07,1,Vente,320000.0,7.0,,RUE ANDRIEUX,0337,75008.0,75108,Paris 8e Arrondissement,75,,,75108000CF0013,,,1,30.58,,,,,,,,,1,2.0,Appartement,24.0,2.0,,,,,,2.318854,48.881058
466,2021-1681678,2021-04-15,1,Vente,218000.0,25.0,,RUE DU CLOS,2135,75020.0,75120,Paris 20e Arrondissement,75,,,75120000CY0081,,,87,27.6,,,,,,,,,1,2.0,Appartement,27.0,2.0,,,,,,2.406804,48.857495
467,2021-1681681,2021-04-16,1,Vente,342400.0,54.0,,RUE DE LA VILLETTE,9839,75019.0,75119,Paris 19e Arrondissement,75,,,75119000DZ0026,,,6,34.4,,,,,,,,,1,2.0,Appartement,35.0,2.0,,,,,,2.388089,48.877313
468,2021-1681686,2021-04-08,1,Vente,310000.0,93.0,,RUE BELLIARD,0838,75018.0,75118,Paris 18e Arrondissement,75,,,75118000AY0066,,,850,35.98,,,,,,,,,1,2.0,Appartement,35.0,2.0,,,,,,2.340625,48.896686
469,2021-1681687,2021-04-01,1,Vente,500.0,5.0,,BD BERTHIER,0913,75017.0,75117,Paris 17e Arrondissement,75,,,75117000DE0006,,,33,,,,,,,,,,1,2.0,Appartement,52.0,3.0,,,,,,2.313199,48.893842
470,2021-1681691,2021-03-31,1,Vente,468020.0,10.0,,RUE BICHAT,0952,75010.0,75110,Paris 10e Arrondissement,75,,,75110000BJ0008,,,9,44.21,,,,,,,,,1,2.0,Appartement,44.0,2.0,,,,,,2.369362,48.870082
471,2021-1681694,2021-04-16,1,Vente,675900.0,23.0,,RUE PASQUIER,7082,75008.0,75108,Paris 8e Arrondissement,75,,,75108000BS0018,,,28,49.06,,,,,,,,,1,2.0,Appartement,6.0,0.0,,,,,,2.323309,48.87275
472,2021-1681696,2021-04-01,1,Vente,393400.0,9.0,,RUE MONTE CRISTO,6475,75020.0,75120,Paris 20e Arrondissement,75,,,75120000CV0098,,,9,38.35,,,,,,,,,1,2.0,Appartement,36.0,2.0,,,,,,2.397924,48.856105
473,2021-1681702,2021-04-06,1,Vente,298000.0,20.0,,RUE ANDRE ANTOINE,0315,75018.0,75118,Paris 18e Arrondissement,75,,,75118000AR0014,,,4,24.18,,,,,,,,,1,2.0,Appartement,25.0,2.0,,,,,,2.337571,48.883961
474,2021-1681707,2021-03-29,1,Vente,214300.0,11.0,,RUE DE ROCHECHOUART,8289,75009.0,75109,Paris 9e Arrondissement,75,,,75109000AZ0105,,,325,17.85,,,,,,,,,1,2.0,Appartement,21.0,1.0,,,,,,2.344047,48.87728
475,2021-1681709,2021-04-26,1,Vente,383500.0,3.0,,RUE DU GENERAL LANREZAC,4055,75017.0,75117,Paris 17e Arrondissement,75,,,75117000AK0023,,,35,35.09,,,,,,,,,1,2.0,Appartement,37.0,1.0,,,,,,2.293582,48.876098
476,2021-1681710,2021-04-21,1,Vente,480000.0,38.0,,RUE PIERRE FONTAINE,3713,75009.0,75109,Paris 9e Arrondissement,75,,,75109000AD0007,,,15,40.11,,,,,,,,,1,2.0,Appartement,38.0,2.0,,,,,,2.333605,48.8828
477,2021-1681711,2021-04-23,1,Vente,417000.0,58.0,,AV DE CLICHY,2112,75018.0,75118,Paris 18e Arrondissement,75,,,75118000AO0023,,,37,43.74,,,,,,,,,1,2.0,Appartement,39.0,2.0,,,,,,2.326291,48.887316
478,2021-1681716,2021-04-15,1,Vente,660000.0,43.0,,RUE DE CLIGNANCOURT,2118,75018.0,75118,Paris 18e Arrondissement,75,,,75118000BS0039,,,104,,,,,,,,,,1,2.0,Appartement,65.0,3.0,,,,,,2.34718,48.886441
479,2021-1681717,2021-04-14,1,Vente,375000.0,12.0,,RUE BEAUREPAIRE,0792,75010.0,75110,Paris 10e Arrondissement,75,,,75110000BH0001,,,11,30.11,,,,,,,,,1,2.0,Appartement,28.0,2.0,,,,,,2.363716,48.869691
480,2021-1681719,2021-03-31,1,Vente,250000.0,151.0,,RUE DE BELLEVILLE,0833,75019.0,75119,Paris 19e Arrondissement,75,,,75119000EA0064,,,54,,,,,,,,,,1,2.0,Appartement,24.0,1.0,,,,,,2.3905,48.875847
481,2021-1681724,2021-04-09,1,Vente,347000.0,99.0,,RUE DUHESME,2974,75018.0,75118,Paris 18e Arrondissement,75,,,75118000BE0060,,,26,36.0,,,,,,,,,1,2.0,Appartement,36.0,2.0,,,,,,2.344667,48.89522
482,2021-1681729,2021-04-16,1,Vente,1000000.0,26.0,,RUE DE ROCHECHOUART,8289,75009.0,75109,Paris 9e Arrondissement,75,,,75109000BF0001,,,27,100.86,,,,,,,,,1,2.0,Appartement,100.0,4.0,,,,,,2.345162,48.878145
483,2021-1681733,2021-04-08,1,Vente,560650.0,77.0,,RUE BOURSAULT,1214,75017.0,75117,Paris 17e Arrondissement,75,,,75117000CR0005,,,7,47.49,,,,,,,,,1,2.0,Appartement,50.0,2.0,,,,,,2.317332,48.886233
484,2021-1681734,2021-04-06,1,Vente,220000.0,51.0,,RUE MARCADET,5995,75018.0,75118,Paris 18e Arrondissement,75,,,75118000BU0089,,,139,23.47,,,,,,,,,1,2.0,Appartement,24.0,1.0,,,,,,2.350354,48.89025
485,2021-1681738,2021-04-26,1,Vente,1113000.0,13.0,,RUE DE BELLEFOND,0827,75009.0,75109,Paris 9e Arrondissement,75,,,75109000BF0037,,,24,81.47,,,,,,,,,1,2.0,Appartement,82.0,4.0,,,,,,2.34769,48.877414
486,2021-1681746,2021-04-08,1,Vente,110000.0,9.0,,RUE DE LABORDE,5200,75008.0,75108,Paris 8e Arrondissement,75,,,75108000BW0040,,,25,10.53,,,,,,,,,1,2.0,Appartement,18.0,1.0,,,,,,2.322081,48.875556
487,2021-1681747,2021-04-16,1,Vente,289599.0,102.0,,RUE DOUDEAUVILLE,2921,75018.0,75118,Paris 18e Arrondissement,75,,,75118000BU0145,,,7,28.14,,,,,,,,,1,2.0,Appartement,35.0,2.0,,,,,,2.348505,48.888628
488,2021-1681749,2021-03-30,1,Vente,10000.0,36.0,,RUE DE TERRE NEUVE,9212,75020.0,75120,Paris 20e Arrondissement,75,,,75120000DR0120,,,58,,,,,,,,,,1,2.0,Appartement,36.0,1.0,,,,,,2.3989,48.854567
489,2021-1681750,2021-04-09,1,Vente,229000.0,13.0,,RUE DES HAIES,4452,75020.0,75120,Paris 20e Arrondissement,75,,,75120000DS0068,,,41,20.82,,,,,,,,,1,2.0,Appartement,20.0,1.0,,,,,,2.400062,48.852828
490,2021-1681753,2021-04-09,1,Vente,1024650.0,87.0,,BD DE MAGENTA,5907,75010.0,75110,Paris 10e Arrondissement,75,,,75110000AL0027,,,24,,,,,,,,,,1,2.0,Appartement,77.0,4.0,,,,,,2.354679,48.877433
491,2021-1681757,2021-04-20,1,Vente,501300.0,3.0,,CITE DE MAGENTA,5908,75010.0,75110,Paris 10e Arrondissement,75,,,75110000AZ0040,,,33,43.28,,,,,,,,,1,2.0,Appartement,38.0,2.0,,,,,,2.359464,48.871414
492,2021-1681758,2021-04-13,1,Vente,481400.0,11.0,,RUE DE BEARN,0756,75003.0,75103,Paris 3e Arrondissement,75,,,75103000AN0041,,,12,27.8,,,,,,,,,1,2.0,Appartement,25.0,1.0,,,,,,2.366103,48.857474
493,2021-1681759,2021-04-02,1,Vente,597000.0,27.0,,RUE DE PONTHIEU,7612,75008.0,75108,Paris 8e Arrondissement,75,,,75108000BH0029,,,46,42.65,,,,,,,,,1,2.0,Appartement,45.0,2.0,,,,,,2.308872,48.870761
494,2021-1681776,2021-04-14,1,Vente,285000.0,9.0,,RUE DE CHABROL,1676,75010.0,75110,Paris 10e Arrondissement,75,,,75110000AP0034,,,53,25.87,,,,,,,,,1,2.0,Appartement,22.0,1.0,,,,,,2.35504,48.87634
495,2021-1681789,2021-04-01,1,Vente,274500.0,43.0,,RUE DU DOCTEUR HEULIN,2840,75017.0,75117,Paris 17e Arrondissement,75,,,75117000DL0049,,,17,22.64,,,,,,,,,1,2.0,Appartement,28.0,2.0,,,,,,2.324385,48.89112
496,2021-1681791,2021-04-01,1,Vente,543875.0,29.0,,RUE DANIELLE CASANOVA,2543,75001.0,75101,Paris 1er Arrondissement,75,,,75101000AZ0035,,,17,45.0,,,,,,,,,1,2.0,Appartement,47.0,2.0,,,,,,2.331099,48.867776
497,2021-1681793,2021-04-23,1,Vente,155000.0,21.0,,BD BESSIERES,0935,75017.0,75117,Paris 17e Arrondissement,75,,,75117000DQ0216,,,24,14.37,,,,,,,,,1,2.0,Appartement,18.0,1.0,,,,,,2.326633,48.897306
498,2021-1681797,2021-04-09,1,Vente,507000.0,4.0,,RUE GEORGES LARDENNOIS,4137,75019.0,75119,Paris 19e Arrondissement,75,,,75119000EV0144,,,61,48.78,,,,,,,,,1,2.0,Appartement,48.0,3.0,,,,,,2.375861,48.877955
499,2021-1681799,2021-04-26,1,Vente,75000.0,13.0,,RUE DE MONTYON,6541,75009.0,75109,Paris 9e Arrondissement,75,,,75109000AW0110,,,16,,,,,,,,,,1,2.0,Appartement,11.0,1.0,,,,,,2.343757,48.872929
500,2021-1681801,2021-04-20,1,Vente,165000.0,19.0,,RUE D ANNAM,0355,75020.0,75120,Paris 20e Arrondissement,75,,,75120000CC0023,,,6,15.4,,,,,,,,,1,2.0,Appartement,15.0,1.0,,,,,,2.394526,48.867475
