,id_mutation,date_mutation,numero_disposition,nature_mutation,valeur_fonciere,adresse_numero,adresse_suffixe,adresse_nom_voie,adresse_code_voie,code_postal,code_commune,nom_commune,code_departement,ancien_code_commune,ancien_nom_commune,id_parcelle,ancien_id_parcelle,numero_volume,lot1_numero,lot1_surface_carrez,lot2_numero,lot2_surface_carrez,lot3_numero,lot3_surface_carrez,lot4_numero,lot4_surface_carrez,lot5_numero,lot5_surface_carrez,nombre_lots,code_type_local,type_local,surface_reelle_bati,nombre_pieces_principales,code_nature_culture,nature_culture,code_nature_culture_speciale,nature_culture_speciale,surface_terrain,longitude,latitude
0,2019-1502432,2019-01-03,1,Vente,5400.0,79.0,,RUE DES GRAVILLIERS,4302,75003.0,75103,Paris 3e Arrondissement,75,,,75103000AV0022,,,28,,,,,,,,,,1,2.0,Appartement,21.0,1.0,,,,,,2.353479,48.864674
1,2019-1502433,2019-01-10,1,Vente,230000.0,4.0,,RUE BLONDEL,1021,75003.0,75103,Paris 3e Arrondissement,75,,,75103000AB0130,,,12,22.28,,,,,,,,,1,2.0,Appartement,26.0,1.0,,,,,,2.354961,48.868615
2,2019-1502436,2019-01-07,1,Vente,506800.0,4.0,,CITE DUPETIT THOUARS,2996,75003.0,75103,Paris 3e Arrondissement,75,,,75103000AG0072,,,15,42.68,,,,,,,,,1,2.0,Appartement,45.0,2.0,,,,,,2.362024,48.865675
3,2019-1502440,2019-01-08,1,Vente,2638500.0,67.0,,BD DE COURCELLES,2386,75008.0,75108,Paris 8e Arrondissement,75,,,75108000AY0032,,,14,253.3,,,,,,,,,1,2.0,Appartement,260.0,8.0,,,,,,2.302062,48.878463
4,2019-1502447,2019-01-10,1,Vente,124000.0,11.0,,BD DES BATIGNOLLES,0719,75008.0,75108,Paris 8e Arrondissement,75,,,75108000CD0053,,,3,12.66,,,,,,,,,1,2.0,Appartement,13.0,1.0,,,,,,2.325916,48.8828
5,2019-1502453,2019-01-11,1,Vente,165000.0,50.0,,RUE DES FRANCS BOURGEOIS,3820,75003.0,75103,Paris 3e Arrondissement,75,,,75103000AP0042,,,22,15.1,,,,,,,,,1,2.0,Appartement,10.0,1.0,,,,,,2.358667,48.859369
6,2019-1502470,2019-01-15,1,Vente,1550000.0,35.0,,RUE DE LA BIENFAISANCE,0960,75008.0,75108,Paris 8e Arrondissement,75,,,75108000CI0103,,,43,,,,,,,,,,1,2.0,Appartement,18.0,2.0,,,,,,2.315018,48.876272
7,2019-1502471,2019-01-07,1,Vente,500000.0,28.0,,PL DE LA MADELEINE,5891,75008.0,75108,Paris 8e Arrondissement,75,,,75108000BS0104,,,4,41.69,,,,,,,,,1,2.0,Appartement,41.0,2.0,,,,,,2.325904,48.870831
8,2019-1502472,2019-01-04,1,Vente,1975000.0,1.0,,RUE DES INNOCENTS,4718,75001.0,75101,Paris 1er Arrondissement,75,,,75101000AO0079,,,80,185.57,,,,,,,,,1,2.0,Appartement,187.0,6.0,,,,,,2.348171,48.860291
9,2019-1502479,2019-01-21,1,Vente,400000.0,17.0,,RUE DE NAPLES,6675,75008.0,75108,Paris 8e Arrondissement,75,,,75108000CF0075,,,10,36.0,,,,,,,,,1,2.0,Appartement,36.0,2.0,,,,,,2.319673,48.879583
10,2019-1502485,2019-01-24,1,Vente,675000.0,36.0,,RUE DE TURIN,9510,75008.0,75108,Paris 8e Arrondissement,75,,,75108000CD0043,,,10,67.77,,,,,,,,,1,2.0,Appartement,64.0,3.0,,,,,,2.324644,48.882453
11,2019-1502491,2019-01-11,1,Vente,545000.0,17.0,,PL DAUPHINE,2594,75001.0,75101,Paris 1er Arrondissement,75,,,75101000AL0020,,,18,30.38,,,,,,,,,1,2.0,Appartement,29.0,2.0,,,,,,2.342125,48.856426
12,2019-1502493,2019-01-10,1,Vente,820000.0,48.0,,RUE DE BASSANO,0703,75008.0,75108,Paris 8e Arrondissement,75,,,75108000AS0045,,,13,77.2,,,,,,,,,1,2.0,Appartement,78.0,3.0,,,,,,2.299523,48.870675
13,2019-1502497,2019-01-21,1,Vente,312200.0,10.0,,RUE DE LISBONNE,5708,75008.0,75108,Paris 8e Arrondissement,75,,,75108000CH0061,,,40,30.05,,,,,,,,,1,2.0,Appartement,31.0,2.0,,,,,,2.316915,48.878124
14,2019-1502501,2019-01-03,1,Vente,270750.0,29.0,,RUE SAINT ROCH,8740,75001.0,75101,Paris 1er Arrondissement,75,,,75101000AZ0064,,,3,23.08,,,,,,,,,1,2.0,Appartement,24.0,1.0,,,,,,2.332422,48.865857
15,2019-1502504,2019-01-10,1,Vente,203000.0,3.0,,RUE DE DURAS,3033,75008.0,75108,Paris 8e Arrondissement,75,,,75108000BN0052,,,32,12.86,,,,,,,,,1,2.0,Appartement,12.0,1.0,,,,,,2.31754,48.87088
16,2019-1502506,2019-01-18,1,Vente,65000.0,9.0,,RUE BAYARD,0746,75008.0,75108,Paris 8e Arrondissement,75,,,75108000AK0021,,,27,7.97,,,,,,,,,1,2.0,Appartement,18.0,1.0,,,,,,2.307482,48.865696
17,2019-1502512,2019-01-03,1,Vente,353000.0,155.0,,RUE DU FAUBOURG SAINT HONORE,3518,75008.0,75108,Paris 8e Arrondissement,75,,,75108000BD0012,,,124,30.6,,,,,,,,,1,2.0,Appartement,33.0,1.0,,,,,,2.306669,48.874195
18,2019-1502513,2019-01-24,1,Vente,190000.0,10.0,,RUE DU JOUR,5033,75001.0,75101,Paris 1er Arrondissement,75,,,75101000AR0118,,,48,20.1,,,,,,,,,1,2.0,Appartement,6.0,1.0,,,,,,2.345291,48.863929
19,2019-1502522,2019-01-07,1,Vente,425000.0,38.0,,RUE CHAPON,1771,75003.0,75103,Paris 3e Arrondissement,75,,,75103000AV0043,,,4,30.0,,,,,,,,,1,2.0,Appartement,30.0,2.0,,,,,,2.354747,48.863879
20,2019-1502527,2019-01-18,1,Vente,159000.0,54.0,,RUE DE ROME,8339,75008.0,75108,Paris 8e Arrondissement,75,,,75108000BZ0008,,,29,9.56,,,,,,,,,1,2.0,Appartement,12.0,1.0,,,,,,2.322122,48.879648
21,2019-1502529,2019-01-10,1,Vente,3000000.0,58.0,,BD DE SEBASTOPOL,8894,75003.0,75103,Paris 3e Arrondissement,75,,,75103000AU0003,,,28,,,,,,,,,,1,2.0,Appartement,43.0,2.0,,,,,,2.351171,48.86319
22,2019-1502533,2019-01-24,1,Vente,1740000.0,33.0,,RUE DE MOSCOU,6573,75008.0,75108,Paris 8e Arrondissement,75,,,75108000CE0075,,,16,144.35,,,,,,,,,1,2.0,Appartement,142.0,6.0,,,,,,2.323063,48.881324
23,2019-1502534,2019-01-18,1,Vente,253800.0,341.0,,RUE SAINT MARTIN,8694,75003.0,75103,Paris 3e Arrondissement,75,,,75103000AB0119,,,50,31.58,,,,,,,,,1,2.0,Appartement,31.0,1.0,,,,,,2.354681,48.86825
24,2019-1502537,2019-01-21,1,Vente,724500.0,5.0,,RUE DEBELLEYME,2616,75003.0,75103,Paris 3e Arrondissement,75,,,75103000AL0019,,,92,,,,,,,,,,1,2.0,Appartement,44.0,2.0,,,,,,2.36367,48.860397
25,2019-1502542,2019-01-15,1,Vente,455000.0,57.0,,RUE CHARLOT,1880,75003.0,75103,Paris 3e Arrondissement,75,,,75103000AH0075,,,104,32.77,,,,,,,,,1,2.0,Appartement,33.0,1.0,,,,,,2.362937,48.863572
26,2019-1502543,2019-01-29,1,Vente,300000.0,148.0,,RUE SAINT HONORE,8635,75001.0,75101,Paris 1er Arrondissement,75,,,75101000AS0072,,,5,24.65,,,,,,,,,1,2.0,Appartement,27.0,1.0,,,,,,2.340441,48.86202
27,2019-1502554,2019-01-15,1,Vente,1050000.0,320.0,,RUE SAINT HONORE,8635,75001.0,75101,Paris 1er Arrondissement,75,,,75101000AY0061,,,21,,,,,,,,,,1,2.0,Appartement,37.0,2.0,,,,,,2.331474,48.865577
28,2019-1502559,2019-01-24,1,Vente,1160000.0,9.0,,RUE DE L ISLY,4748,75008.0,75108,Paris 8e Arrondissement,75,,,75108000BU0041,,,8,96.0,,,,,,,,,1,2.0,Appartement,98.0,4.0,,,,,,2.325592,48.874606
29,2019-1502561,2019-01-31,1,Vente,590000.0,77.0,,RUE CHARLOT,1880,75003.0,75103,Paris 3e Arrondissement,75,,,75103000AH0022,,,128,56.5,,,,,,,,,1,2.0,Appartement,60.0,3.0,,,,,,2.364021,48.864435
30,2019-1502562,2019-01-25,1,Vente,1071100.0,1.0,,IMP SAINT CLAUDE,8519,75003.0,75103,Paris 3e Arrondissement,75,,,75103000AL0070,,,25,56.81,,,,,,,,,1,2.0,Appartement,57.0,2.0,,,,,,2.365592,48.860274
31,2019-1502563,2019-02-04,1,Vente,274000.0,15.0,,RUE DU VERTBOIS,9711,75003.0,75103,Paris 3e Arrondissement,75,,,75103000AF0142,,,12,22.01,,,,,,,,,1,2.0,Appartement,22.0,1.0,,,,,,2.358324,48.866849
32,2019-1502565,2019-01-17,1,Vente,480000.0,10.0,B,RUE PAUL BAUDRY,7119,75008.0,75108,Paris 8e Arrondissement,75,,,75108000BG0040,,,22,,,,,,,,,,1,2.0,Appartement,47.0,2.0,,,,,,2.307635,48.872288
33,2019-1502570,2019-01-08,1,Vente,340000.0,15.0,,AV HOCHE,4645,75008.0,75108,Paris 8e Arrondissement,75,,,75108000BC0006,,,39,28.14,,,,,,,,,1,2.0,Appartement,29.0,2.0,,,,,,2.303313,48.876718
34,2019-1502572,2019-02-01,1,Vente,274285.0,15.0,,RUE MOLIERE,6407,75001.0,75101,Paris 1er Arrondissement,75,,,75101000AW0064,,,14,22.65,,,,,,,,,1,2.0,Appartement,20.0,2.0,,,,,,2.335753,48.865314
35,2019-1502574,2019-01-25,1,Vente,4100000.0,18.0,,AV MATIGNON,6178,75008.0,75108,Paris 8e Arrondissement,75,,,75108000BJ0021,,,40,,,,,,,,,,1,2.0,Appartement,75.0,2.0,,,,,,2.31397,48.87091
36,2019-1502578,2019-01-21,1,Vente,4525500.0,5.0,,RUE DEBELLEYME,2616,75003.0,75103,Paris 3e Arrondissement,75,,,75103000AL0019,,,92,213.73,,,,,,,,,1,2.0,Appartement,149.0,5.0,,,,,,2.36367,48.860397
37,2019-1502586,2019-01-31,1,Vente,415000.0,6.0,,PL SAINTE OPPORTUNE,8589,75001.0,75101,Paris 1er Arrondissement,75,,,75101000AO0052,,,6,44.9,,,,,,,,,1,2.0,Appartement,49.0,2.0,,,,,,2.347505,48.859539
38,2019-1502595,2019-01-11,1,Vente,360000.0,28.0,B,RUE DE RICHELIEU,8212,75001.0,75101,Paris 1er Arrondissement,75,,,75101000AV0094,,,35,,,,,,,,,,1,2.0,Appartement,72.0,3.0,,,,,,2.336869,48.86532
39,2019-1502596,2019-01-15,1,Vente,193000.0,16.0,,RUE MESLAY,6286,75003.0,75103,Paris 3e Arrondissement,75,,,75103000AF0016,,,58,22.0,,,,,,,,,1,2.0,Appartement,22.0,1.0,,,,,,2.36122,48.867704
40,2019-1502603,2019-01-25,1,Vente,230000.0,23.0,,RUE DE RICHELIEU,8212,75001.0,75101,Paris 1er Arrondissement,75,,,75101000AX0056,,,54,14.82,,,,,,,,,1,2.0,Appartement,35.0,2.0,,,,,,2.33597,48.864847
41,2019-1502611,2019-01-14,1,Vente,174000.0,65.0,,RUE D AMSTERDAM,0300,75008.0,75108,Paris 8e Arrondissement,75,,,75108000CD0072,,,102,11.88,,,,,,,,,1,2.0,Appartement,9.0,1.0,,,,,,2.326363,48.881194
42,2019-1502613,2019-02-01,1,Vente,572675.0,1.0,,RUE DU GENERAL FOY,4041,75008.0,75108,Paris 8e Arrondissement,75,,,75108000CI0054,,,3,60.87,,,,,,,,,1,2.0,Appartement,39.0,2.0,,,,,,2.318566,48.8769
43,2019-1502616,2019-02-06,1,Vente,129500.0,5.0,,RUE SAINTE ANASTASE,8531,75003.0,75103,Paris 3e Arrondissement,75,,,75103000AM0013,,,20,7.81,,,,,,,,,1,2.0,Appartement,7.0,1.0,,,,,,2.363957,48.859395
44,2019-1502617,2019-01-28,1,Vente,130000.0,29.0,,RUE DE LA FERRONNERIE,3621,75001.0,75101,Paris 1er Arrondissement,75,,,75101000AO0088,,,35,11.97,,,,,,,,,1,2.0,Appartement,14.0,1.0,,,,,,2.346907,48.860081
45,2019-1502619,2019-01-25,1,Vente,280000.0,147.0,,RUE DU TEMPLE,9191,75003.0,75103,Paris 3e Arrondissement,75,,,75103000AE0168,,,18,40.26,,,,,,,,,1,2.0,Appartement,38.0,3.0,,,,,,2.358455,48.864069
46,2019-1502621,2019-01-29,1,Vente,120000.0,6.0,,RUE PIERRE LE GRAND,7447,75008.0,75108,Paris 8e Arrondissement,75,,,75108000AY0027,,,30,9.12,,,,,,,,,1,2.0,Appartement,15.0,1.0,,,,,,2.301569,48.878284
47,2019-1502623,2019-01-29,1,Vente,250000.0,66.0,,RUE DE ROME,8339,75008.0,75108,Paris 8e Arrondissement,75,,,75108000CE0018,,,17,21.02,,,,,,,,,1,2.0,Appartement,28.0,1.0,,,,,,2.32172,48.880423
48,2019-1502626,2019-02-06,1,Vente,370000.0,19.0,,AV HOCHE,4645,75008.0,75108,Paris 8e Arrondissement,75,,,75108000BC0004,,,13,27.41,,,,,,,,,1,2.0,Appartement,30.0,1.0,,,,,,2.302924,48.876617
49,2019-1502639,2019-02-08,1,Vente,270000.0,11.0,B,RUE SAINTE ANNE,8534,75001.0,75101,Paris 1er Arrondissement,75,,,75101000AW0081,,,17,18.19,,,,,,,,,1,2.0,Appartement,18.0,1.0,,,,,,2.335313,48.866199
50,2019-1502642,2019-01-24,1,Vente,6000.0,76.0,,RUE DE MONCEAU,6419,75008.0,75108,Paris 8e Arrondissement,75,,,75108000CG0092,,,3,,,,,,,,,,1,2.0,Appartement,171.0,6.0,,,,,,2.315742,48.879862
51,2019-1502645,2019-02-07,1,Vente,291400.0,156.0,,RUE DU TEMPLE,9191,75003.0,75103,Paris 3e Arrondissement,75,,,75103000AI0002,,,9,29.59,,,,,,,,,1,2.0,Appartement,23.0,1.0,,,,,,2.359558,48.864481
52,2019-1502647,2019-01-15,1,Vente,257000.0,8.0,,RUE DU ROCHER,8291,75008.0,75108,Paris 8e Arrondissement,75,,,75108000BV0017,,,32,20.64,,,,,,,,,1,2.0,Appartement,22.0,1.0,,,,,,2.323241,48.875981
53,2019-1502648,2019-01-21,1,Vente,235100.0,21.0,,RUE DES GRAVILLIERS,4302,75003.0,75103,Paris 3e Arrondissement,75,,,75103000AS0011,,,312,,,,,,,,,,1,2.0,Appartement,23.0,1.0,,,,,,2.356857,48.863613
54,2019-1502651,2019-01-24,1,Vente,240000.0,3.0,,RUE ROBERT ESTIENNE,8256,75008.0,75108,Paris 8e Arrondissement,75,,,75108000AQ0009,,,2,23.8,,,,,,,,,1,2.0,Appartement,18.0,1.0,,,,,,2.305181,48.868965
55,2019-1502653,2019-01-31,1,Vente,1070000.0,38.0,,RUE DE TURIN,9510,75008.0,75108,Paris 8e Arrondissement,75,,,75108000CD0044,,,4,102.01,,,,,,,,,1,2.0,Appartement,100.0,3.0,,,,,,2.324618,48.882577
56,2019-1502654,2019-01-24,1,Vente,120000.0,24.0,,RUE DE SAINT PETERSBOURG,8724,75008.0,75108,Paris 8e Arrondissement,75,,,75108000CD0071,,,17,12.47,,,,,,,,,1,2.0,Appartement,13.0,1.0,,,,,,2.325764,48.881334
57,2019-1502655,2019-01-30,1,Vente,606000.0,347.0,,RUE SAINT MARTIN,8694,75003.0,75103,Paris 3e Arrondissement,75,,,75103000AB0124,,,8,53.64,,,,,,,,,1,2.0,Appartement,56.0,3.0,,,,,,2.354762,48.868367
58,2019-1502657,2019-02-14,1,Vente,729450.0,52.0,,RUE LA BOETIE,5194,75008.0,75108,Paris 8e Arrondissement,75,,,75108000CK0035,,,22,57.4,,,,,,,,,1,2.0,Appartement,57.0,3.0,,,,,,2.31296,48.873634
59,2019-1502658,2019-02-04,1,Vente,480000.0,44.0,,RUE NOTRE DAME DE NAZARETH,6834,75003.0,75103,Paris 3e Arrondissement,75,,,75103000AB0065,,,36,41.57,,,,,,,,,1,2.0,Appartement,34.0,2.0,,,,,,2.358185,48.86769
60,2019-1502659,2019-02-04,1,Vente,445000.0,31.0,T,RUE DES TOURNELLES,9382,75003.0,75103,Paris 3e Arrondissement,75,,,75103000AN0085,,,18,33.1,,,,,,,,,1,2.0,Appartement,33.0,2.0,,,,,,2.367066,48.856285
61,2019-1502660,2019-02-01,1,Vente,415000.0,8.0,,RUE DU FOIN,3698,75003.0,75103,Paris 3e Arrondissement,75,,,75103000AN0075,,,40,38.53,,,,,,,,,1,2.0,Appartement,37.0,2.0,,,,,,2.364992,48.857183
62,2019-1502666,2019-02-14,1,Vente,245280.0,21.0,,RUE AU MAIRE,5927,75003.0,75103,Paris 3e Arrondissement,75,,,75103000AE0110,,,13,21.93,,,,,,,,,1,2.0,Appartement,25.0,2.0,,,,,,2.356259,48.864487
63,2019-1502676,2019-01-28,1,Vente,1174900.0,80.0,,RUE DES ARCHIVES,0420,75003.0,75103,Paris 3e Arrondissement,75,,,75103000AI0063,,,13,81.75,,,,,,,,,1,2.0,Appartement,80.0,3.0,,,,,,2.360513,48.862838
64,2019-1502682,2019-02-13,2,Vente,20000.0,2.0,,RUE DE MIROMESNIL,6387,75008.0,75108,Paris 8e Arrondissement,75,,,75108000BM0014,,,34,,,,,,,,,,1,2.0,Appartement,193.0,5.0,,,,,,2.316403,48.871548
65,2019-1502684,2019-02-12,1,Vente,370000.0,11.0,,RUE CHATEAUBRIAND,1914,75008.0,75108,Paris 8e Arrondissement,75,,,75108000AU0013,,,511,33.66,,,,,,,,,1,2.0,Appartement,34.0,2.0,,,,,,2.301926,48.873003
66,2019-1502685,2019-02-06,1,Vente,207160.0,8.0,,RUE DE SAINT PETERSBOURG,8724,75008.0,75108,Paris 8e Arrondissement,75,,,75108000BZ0051,,,14,22.34,,,,,,,,,1,2.0,Appartement,24.0,1.0,,,,,,2.324573,48.88003
67,2019-1502691,2019-01-25,1,Vente,765000.0,170.0,,RUE DU TEMPLE,9191,75003.0,75103,Paris 3e Arrondissement,75,,,75103000AG0110,,,149,61.27,,,,,,,,,1,2.0,Appartement,61.0,2.0,,,,,,2.361632,48.865995
68,2019-1502692,2019-02-13,1,Vente,360000.0,30.0,,RUE DE LISBONNE,5708,75008.0,75108,Paris 8e Arrondissement,75,,,75108000CH0009,,,18,32.81,,,,,,,,,1,2.0,Appartement,32.0,1.0,,,,,,2.313666,48.877947
69,2019-1502698,2019-02-15,1,Vente,393000.0,46.0,,RUE DES LOMBARDS,5738,75001.0,75101,Paris 1er Arrondissement,75,,,75101000AO0027,,,10,36.04,,,,,,,,,1,2.0,Appartement,36.0,1.0,,,,,,2.348449,48.859804
70,2019-1502701,2019-01-31,1,Vente,300000.0,23.0,,RUE DE POITOU,7572,75003.0,75103,Paris 3e Arrondissement,75,,,75103000AQ0074,,,15,25.18,,,,,,,,,1,2.0,Appartement,32.0,2.0,,,,,,2.362593,48.86145
71,2019-1502702,2019-01-28,1,Vente,448000.0,3.0,,RUE DE LA BIENFAISANCE,0960,75008.0,75108,Paris 8e Arrondissement,75,,,75108000BW0006,,,139,48.9,,,,,,,,,1,2.0,Appartement,47.0,3.0,,,,,,2.320998,48.876646
72,2019-1502718,2019-02-05,1,Vente,751440.0,9.0,,RUE BAYARD,0746,75008.0,75108,Paris 8e Arrondissement,75,,,75108000AK0021,,,70,39.34,,,,,,,,,1,2.0,Appartement,50.0,2.0,,,,,,2.307482,48.865696
73,2019-1502720,2019-02-15,1,Vente,300000.0,16.0,,RUE BARBETTE,0666,75003.0,75103,Paris 3e Arrondissement,75,,,75103000AP0029,,,12,42.84,,,,,,,,,1,2.0,Appartement,45.0,2.0,,,,,,2.360423,48.859217
74,2019-1502724,2019-02-01,1,Vente,938773.06,3.0,,RUE ROBERT ESTIENNE,8256,75008.0,75108,Paris 8e Arrondissement,75,,,75108000AQ0009,,,23,,,,,,,,,,1,2.0,Appartement,65.0,2.0,,,,,,2.305181,48.868965
75,2019-1502725,2019-02-01,1,Vente,880582.3,5.0,,RUE ROBERT ESTIENNE,8256,75008.0,75108,Paris 8e Arrondissement,75,,,75108000AQ0010,,,23,,,,,,,,,,1,2.0,Appartement,53.0,2.0,,,,,,2.305318,48.868833
76,2019-1502729,2019-02-14,1,Vente,2000.0,6.0,,RUE CHARLES-FRANCOIS DUPUIS,3015,75003.0,75103,Paris 3e Arrondissement,75,,,75103000AG0036,,,59,,,,,,,,,,1,2.0,Appartement,41.0,2.0,,,,,,2.363282,48.865119
77,2019-1502734,2019-01-29,1,Vente,550000.0,2.0,,RUE DUPETIT THOUARS,2997,75003.0,75103,Paris 3e Arrondissement,75,,,75103000AG0037,,,13,44.28,,,,,,,,,1,2.0,Appartement,40.0,2.0,,,,,,2.362996,48.864962
78,2019-1502736,2019-02-08,1,Vente,23750.0,10.0,,RUE DE MONCEAU,6419,75008.0,75108,Paris 8e Arrondissement,75,,,75108000BD0026,,,61,,,,,,,,,,1,2.0,Appartement,29.0,1.0,,,,,,2.307098,48.875459
79,2019-1502743,2019-01-31,1,Vente,420000.0,5.0,,RUE DE BEAUCE,0761,75003.0,75103,Paris 3e Arrondissement,75,,,75103000AI0063,,,60,,,,,,,,,,1,2.0,Appartement,47.0,2.0,,,,,,2.360513,48.862838
80,2019-1502746,2019-02-12,1,Vente,280000.0,28.0,,RUE CHAPON,1771,75003.0,75103,Paris 3e Arrondissement,75,,,75103000AS0041,,,71,,,,,,,,,,1,2.0,Appartement,20.0,1.0,,,,,,2.355459,48.863778
81,2019-1502751,2019-02-13,1,Vente,1550000.0,12.0,,RUE BEAUJON,0779,75008.0,75108,Paris 8e Arrondissement,75,,,75108000AW0014,,,47,,,,,,,,,,1,2.0,Appartement,137.0,5.0,,,,,,2.301672,48.875086
82,2019-1502753,2019-02-28,1,Vente,40000.0,2.0,,RUE DE BEAUCE,0761,75003.0,75103,Paris 3e Arrondissement,75,,,75103000AI0092,,,93,,,,,,,,,,1,2.0,Appartement,105.0,5.0,,,,,,2.36094,48.862446
83,2019-1502760,2019-02-28,1,Vente,360000.0,8.0,,RUE DES FILLES DU CALVAIRE,3643,75003.0,75103,Paris 3e Arrondissement,75,,,75103000AK0011,,,18,31.92,,,,,,,,,1,2.0,Appartement,35.0,2.0,,,,,,2.365539,48.862243
84,2019-1502764,2019-02-12,1,Vente,585000.0,48.0,,RUE DE TURENNE,9506,75003.0,75103,Paris 3e Arrondissement,75,,,75103000AN0025,,,7,50.67,,,,,,,,,1,2.0,Appartement,59.0,2.0,,,,,,2.364704,48.857997
85,2019-1502765,2019-02-18,1,Vente,1875000.0,38.0,,RUE FRANCOIS 1ER,3814,75008.0,75108,Paris 8e Arrondissement,75,,,75108000AQ0018,,,15,,,,,,,,,,1,2.0,Appartement,116.0,4.0,,,,,,2.304819,48.868369
86,2019-1502767,2019-02-08,1,Vente,750000.0,11.0,,RUE CHATEAUBRIAND,1914,75008.0,75108,Paris 8e Arrondissement,75,,,75108000AU0013,,,405,50.01,,,,,,,,,1,2.0,Appartement,49.0,2.0,,,,,,2.301926,48.873003
87,2019-1502777,2019-02-26,1,Vente,950440.0,30.0,,RUE CHAPON,1771,75003.0,75103,Paris 3e Arrondissement,75,,,75103000AS0042,,,33,,,,,,,,,,1,2.0,Appartement,25.0,2.0,,,,,,2.355355,48.863862
88,2019-1502778,2019-02-15,1,Vente,1200000.0,4.0,,RUE PORTEFOIN,7729,75003.0,75103,Paris 3e Arrondissement,75,,,75103000AI0018,,,20,89.57,,,,,,,,,1,2.0,Appartement,87.0,3.0,,,,,,2.360569,48.863553
89,2019-1502780,2019-02-15,1,Vente,415000.0,181.0,,RUE SAINT MARTIN,8694,75003.0,75103,Paris 3e Arrondissement,75,,,75103000AU0064,,,4,31.67,,,,,,,,,1,2.0,Appartement,32.0,1.0,,,,,,2.351996,48.862858
90,2019-1502783,2019-02-20,1,Vente,668270.0,20.0,,RUE CROIX DES PETITS CHAMPS,2453,75001.0,75101,Paris 1er Arrondissement,75,,,75101000AR0058,,,83,53.42,,,,,,,,,1,2.0,Appartement,69.0,2.0,,,,,,2.340328,48.863699
91,2019-1502785,2019-02-04,1,Vente,150000.0,151.0,,RUE DU TEMPLE,9191,75003.0,75103,Paris 3e Arrondissement,75,,,75103000AE0050,,,54,,,,,,,,,,1,2.0,Appartement,26.0,2.0,,,,,,2.358652,48.864251
92,2019-1502787,2019-02-13,1,Vente,250000.0,75.0,,RUE SAINT HONORE,8635,75001.0,75101,Paris 1er Arrondissement,75,,,75101000AT0085,,,6,25.2,,,,,,,,,1,2.0,Appartement,27.0,1.0,,,,,,2.344096,48.861015
93,2019-1502789,2019-02-28,1,Vente,377000.0,56.0,,RUE DE RICHELIEU,8212,75001.0,75101,Paris 1er Arrondissement,75,,,75101000AV0063,,,63,24.54,,,,,,,,,1,2.0,Appartement,22.0,2.0,,,,,,2.337476,48.866524
94,2019-1502790,2019-02-18,1,Vente,280000.0,21.0,,RUE DE TEHERAN,9185,75008.0,75108,Paris 8e Arrondissement,75,,,75108000CM0037,,,36,24.0,,,,,,,,,1,2.0,Appartement,23.0,1.0,,,,,,2.312267,48.87787
95,2019-1502791,2019-02-25,1,Vente,377530.0,15.0,,RUE MICHEL LE COMTE,6336,75003.0,75103,Paris 3e Arrondissement,75,,,75103000AT0036,,,20,27.04,,,,,,,,,1,2.0,Appartement,46.0,4.0,,,,,,2.355884,48.862155
96,2019-1502792,2019-03-01,1,Vente,480000.0,8.0,,RUE DE SAINTONGE,8716,75003.0,75103,Paris 3e Arrondissement,75,,,75103000AQ0070,,,40,41.51,,,,,,,,,1,2.0,Appartement,50.0,3.0,,,,,,2.362303,48.861124
97,2019-1502794,2019-03-01,1,Vente,517000.0,47.0,,RUE D AMSTERDAM,0300,75008.0,75108,Paris 8e Arrondissement,75,,,75108000BZ0029,,,13,43.1,,,,,,,,,1,2.0,Appartement,46.0,2.0,,,,,,2.326816,48.879851
98,2019-1502796,2019-02-25,1,Vente,380000.0,9.0,,RUE DU PONT AUX CHOUX,7605,75003.0,75103,Paris 3e Arrondissement,75,,,75103000AL0053,,,32,35.89,,,,,,,,,1,2.0,Appartement,40.0,2.0,,,,,,2.366311,48.860877
99,2019-1502801,2019-02-22,1,Vente,230000.0,9.0,,RUE DES MOULINS,6603,75001.0,75101,Paris 1er Arrondissement,75,,,75101000AW0012,,,5,17.18,,,,,,,,,1,2.0,Appartement,19.0,1.0,,,,,,2.335036,48.867077
100,2019-1502802,2019-02-13,1,Vente,560000.0,189.0,,RUE DU TEMPLE,9191,75003.0,75103,Paris 3e Arrondissement,75,,,75103000AF0114,,,20,53.26,,,,,,,,,1,2.0,Appartement,53.0,3.0,,,,,,2.360137,48.865859
101,2019-1502806,2019-02-13,1,Vente,140000.0,59.0,,RUE SAINT DENIS,8525,75001.0,75101,Paris 1er Arrondissement,75,,,75101000AP0018,,,12,22.85,,,,,,,,,1,2.0,Appartement,25.0,1.0,,,,,,2.348661,48.861264
102,2019-1502811,2019-03-01,1,Vente,1900000.0,5.0,,RUE DE LA RENAISSANCE,8129,75008.0,75108,Paris 8e Arrondissement,75,,,75108000AN0009,,,5,120.69,,,,,,,,,1,2.0,Appartement,240.0,9.0,,,,,,2.302516,48.867302
103,2019-1502814,2019-02-15,1,Vente,270000.0,161.0,,RUE DU FAUBOURG SAINT HONORE,3518,75008.0,75108,Paris 8e Arrondissement,75,,,75108000BD0014,,,9,22.03,,,,,,,,,1,2.0,Appartement,21.0,1.0,,,,,,2.306032,48.874427
104,2019-1502821,2019-02-19,1,Vente,349310.0,34.0,,RUE DE POITOU,7572,75003.0,75103,Paris 3e Arrondissement,75,,,75103000AK0093,,,36,58.0,,,,,,,,,1,2.0,Appartement,62.0,2.0,,,,,,2.362104,48.861856
105,2019-1502825,2019-02-25,1,Vente,742000.0,49.0,,RUE AU MAIRE,5927,75003.0,75103,Paris 3e Arrondissement,75,,,75103000AD0032,,,7,61.54,,,,,,,,,1,2.0,Appartement,52.0,2.0,,,,,,2.354921,48.864733
106,2019-1502826,2019-02-25,1,Vente,625000.0,4.0,,RUE SAINTE OPPORTUNE,8590,75001.0,75101,Paris 1er Arrondissement,75,,,75101000AO0071,,,5,51.9,,,,,,,,,1,2.0,Appartement,65.0,4.0,,,,,,2.347383,48.860019
107,2019-1502827,2019-03-07,1,Vente,15000.0,9.0,,BD SAINT MARTIN,8692,75003.0,75103,Paris 3e Arrondissement,75,,,75103000AF0012,,,34,,,,,,,,,,1,2.0,Appartement,20.0,2.0,,,,,,2.361102,48.867867
108,2019-1502844,2019-02-20,1,Vente,1742000.0,37.0,,RUE DE CONSTANTINOPLE,2289,75008.0,75108,Paris 8e Arrondissement,75,,,75108000CF0113,,,8,149.13,,,,,,,,,1,2.0,Appartement,138.0,6.0,,,,,,2.317632,48.880647
109,2019-1502845,2019-02-21,1,Vente,14999.0,77.0,,BD MALESHERBES,5951,75008.0,75108,Paris 8e Arrondissement,75,,,75108000CI0041,,,179,,,,,,,,,,1,2.0,Appartement,71.0,3.0,,,,,,2.316295,48.877129
110,2019-1502847,2019-03-06,1,Vente,450000.0,8.0,,RUE MONTGOLFIER,6497,75003.0,75103,Paris 3e Arrondissement,75,,,75103000AC0018,,,100,61.5,,,,,,,,,1,2.0,Appartement,60.0,1.0,,,,,,2.357272,48.865978
111,2019-1502850,2019-02-19,1,Vente,100000.0,39.0,,QUAI DE L HORLOGE,4655,75001.0,75101,Paris 1er Arrondissement,75,,,75101000AL0002,,,28,,,,,,,,,,1,2.0,Appartement,90.0,3.0,,,,,,2.341844,48.856946
112,2019-1502863,2019-03-11,1,Vente,1070000.0,51.0,,RUE DE NAPLES,6675,75008.0,75108,Paris 8e Arrondissement,75,,,75108000CH0045,,,7,84.48,,,,,,,,,1,2.0,Appartement,83.0,3.0,,,,,,2.315948,48.878942
113,2019-1502867,2019-02-26,1,Vente,1175000.0,12.0,,RUE SAINT HYACINTHE,8641,75001.0,75101,Paris 1er Arrondissement,75,,,75101000AZ0089,,,22,76.79,,,,,,,,,1,2.0,Appartement,78.0,4.0,,,,,,2.331456,48.866221
114,2019-1502871,2019-02-19,1,Vente,362500.0,349.0,,RUE SAINT MARTIN,8694,75003.0,75103,Paris 3e Arrondissement,75,,,75103000AB0125,,,73,34.08,,,,,,,,,1,2.0,Appartement,34.0,1.0,,,,,,2.354833,48.868407
115,2019-1502872,2019-02-22,1,Vente,1550000.0,14.0,,RUE DE LA CORDERIE,2330,75003.0,75103,Paris 3e Arrondissement,75,,,75103000AG0079,,,60,125.51,,,,,,,,,1,2.0,Appartement,126.0,5.0,,,,,,2.362968,48.865495
116,2019-1502876,2019-03-15,1,Vente,40000.0,2.0,,RUE DE BEAUCE,0761,75003.0,75103,Paris 3e Arrondissement,75,,,75103000AI0092,,,92,,,,,,,,,,1,2.0,Appartement,225.0,6.0,,,,,,2.36094,48.862446
117,2019-1502877,2019-03-14,1,Vente,190000.0,23.0,,RUE DES VERTUS,9715,75003.0,75103,Paris 3e Arrondissement,75,,,75103000AE0125,,,14,16.33,,,,,,,,,1,2.0,Appartement,16.0,1.0,,,,,,2.357953,48.864738
119,2019-1502887,2019-02-21,1,Vente,1810000.0,165.0,,RUE DU TEMPLE,9191,75003.0,75103,Paris 3e Arrondissement,75,,,75103000AE0040,,,11,135.32,,,,,,,,,1,2.0,Appartement,125.0,6.0,,,,,,2.359594,48.864853
120,2019-1502893,2019-03-11,1,Vente,461800.0,55.0,,RUE DE TURENNE,9506,75003.0,75103,Paris 3e Arrondissement,75,,,75103000AM0024,,,99,36.07,,,,,,,,,1,2.0,Appartement,45.0,2.0,,,,,,2.364013,48.858556
121,2019-1502897,2019-03-13,1,Vente,1500000.0,134.0,,RUE DE TURENNE,9506,75003.0,75103,Paris 3e Arrondissement,75,,,75103000AH0027,,,8,54.0,,,,,,,,,1,2.0,Appartement,55.0,3.0,,,,,,2.365018,48.864622
122,2019-1502899,2019-03-13,1,Vente,910000.0,30.0,,RUE NOTRE DAME DE NAZARETH,6834,75003.0,75103,Paris 3e Arrondissement,75,,,75103000AF0063,,,43,86.14,,,,,,,,,1,2.0,Appartement,88.0,4.0,,,,,,2.359542,48.867492
123,2019-1502901,2019-03-15,1,Vente,302000.0,79.0,,RUE QUINCAMPOIX,7970,75003.0,75103,Paris 3e Arrondissement,75,,,75103000AU0019,,,10,24.03,,,,,,,,,1,2.0,Appartement,23.0,1.0,,,,,,2.350958,48.862316
124,2019-1502904,2019-03-20,1,Vente,172500.0,29.0,,RUE DE LIEGE,5665,75008.0,75108,Paris 8e Arrondissement,75,,,75108000BY0011,,,2,41.0,,,,,,,,,1,2.0,Appartement,34.0,2.0,,,,,,2.326105,48.879201
125,2019-1502905,2019-03-12,1,Vente,230000.0,18.0,,RUE DU PONT AUX CHOUX,7605,75003.0,75103,Paris 3e Arrondissement,75,,,75103000AK0045,,,25,19.7,,,,,,,,,1,2.0,Appartement,20.0,1.0,,,,,,2.365189,48.861322
126,2019-1502911,2019-02-27,1,Vente,195000.0,12.0,,RUE COMMINES,2249,75003.0,75103,Paris 3e Arrondissement,75,,,75103000AK0019,,,53,15.75,,,,,,,,,1,2.0,Appartement,16.0,1.0,,,,,,2.365951,48.861836
127,2019-1502914,2019-02-28,2,Vente,150000.0,16.0,,RUE DU GENERAL FOY,4041,75008.0,75108,Paris 8e Arrondissement,75,,,75108000BX0096,,,9,,,,,,,,,,1,2.0,Appartement,150.0,5.0,,,,,,2.318587,48.877832
128,2019-1502917,2019-03-18,1,Vente,2881709.0,32.0,,AV MARCEAU,5997,75008.0,75108,Paris 8e Arrondissement,75,,,75108000AP0063,,,10,152.05,,,,,,,,,1,2.0,Appartement,163.0,5.0,,,,,,2.299793,48.867469
129,2019-1502918,2019-02-27,1,Vente,150000.0,3.0,,AV MONTAIGNE,6450,75008.0,75108,Paris 8e Arrondissement,75,,,75108000AO0056,,,68,,,,,,,,,,1,2.0,Appartement,36.0,2.0,,,,,,2.302002,48.865278
130,2019-1502919,2019-03-12,1,Vente,375057.0,29.0,,RUE SAINT DENIS,8525,75001.0,75101,Paris 1er Arrondissement,75,,,75101000AO0064,,,17,26.63,,,,,,,,,1,2.0,Appartement,40.0,1.0,,,,,,2.34793,48.859905
131,2019-1502920,2019-03-18,1,Vente,170000.0,34.0,,RUE DE POITOU,7572,75003.0,75103,Paris 3e Arrondissement,75,,,75103000AK0093,,,13,16.07,,,,,,,,,1,2.0,Appartement,20.0,2.0,,,,,,2.362104,48.861856
132,2019-1502930,2019-03-21,1,Vente,1846684.8,52.0,,RUE LA BOETIE,5194,75008.0,75108,Paris 8e Arrondissement,75,,,75108000CK0035,,,20,144.0,,,,,,,,,1,2.0,Appartement,142.0,4.0,,,,,,2.31296,48.873634
133,2019-1502935,2019-03-21,1,Vente,192000.0,19.0,,RUE DE CASTELLANE,1599,75008.0,75108,Paris 8e Arrondissement,75,,,75108000BS0127,,,15,13.82,,,,,,,,,1,2.0,Appartement,13.0,1.0,,,,,,2.32413,48.872479
134,2019-1502948,2019-03-18,1,Vente,240000.0,163.0,,RUE SAINT MARTIN,8694,75003.0,75103,Paris 3e Arrondissement,75,,,75103000AU0057,,,67,19.47,,,,,,,,,1,2.0,Appartement,21.0,1.0,,,,,,2.351724,48.862491
135,2019-1502949,2019-03-07,1,Vente,1650000.0,164.0,,RUE DU FAUBOURG SAINT HONORE,3518,75008.0,75108,Paris 8e Arrondissement,75,,,75108000BE0017,,,28,174.81,,,,,,,,,1,2.0,Appartement,190.0,5.0,,,,,,2.309351,48.873827
136,2019-1502950,2019-03-14,1,Vente,522616.97,44.0,,RUE DE TURENNE,9506,75003.0,75103,Paris 3e Arrondissement,75,,,75103000AN0027,,,6,37.05,,,,,,,,,1,2.0,Appartement,44.0,3.0,,,,,,2.364673,48.857803
137,2019-1502958,2019-03-20,1,Vente,741500.0,8.0,,RUE PORTEFOIN,7729,75003.0,75103,Paris 3e Arrondissement,75,,,75103000AI0016,,,320,68.56,,,,,,,,,1,2.0,Appartement,70.0,2.0,,,,,,2.360149,48.863775
138,2019-1502961,2019-03-13,1,Vente,205000.0,8.0,,RUE BERTIN POIREE,0920,75001.0,75101,Paris 1er Arrondissement,75,,,75101000AN0032,,,110,22.86,,,,,,,,,1,2.0,Appartement,23.0,2.0,,,,,,2.344997,48.858502
139,2019-1502962,2019-03-04,1,Vente,330000.0,23.0,,RUE BERGER,0885,75001.0,75101,Paris 1er Arrondissement,75,,,75101000AO0001,,,100201,32.26,,,,,,,,,1,2.0,Appartement,36.0,1.0,,,,,,2.345729,48.860977
140,2019-1502964,2019-03-22,1,Vente,100000.0,9.0,,RUE FREDERIC BASTIAT,3832,75008.0,75108,Paris 8e Arrondissement,75,,,75108000BF0045,,,19,,,,,,,,,,1,2.0,Appartement,5.0,1.0,,,,,,2.307058,48.872877
141,2019-1502965,2019-03-15,1,Vente,339650.0,7.0,,RUE NOTRE DAME DE NAZARETH,6834,75003.0,75103,Paris 3e Arrondissement,75,,,75103000AF0099,,,44,20.05,,,,,,,,,1,2.0,Appartement,21.0,1.0,,,,,,2.360903,48.866846
142,2019-1502966,2019-03-12,1,Vente,430000.0,49.0,,RUE DE RICHELIEU,8212,75001.0,75101,Paris 1er Arrondissement,75,,,75101000AW0037,,,31,37.01,,,,,,,,,1,2.0,Appartement,35.0,1.0,,,,,,2.336992,48.866458
143,2019-1502972,2019-03-15,1,Vente,1400000.0,9.0,,RUE THERESE,9260,75001.0,75101,Paris 1er Arrondissement,75,,,75101000AW0075,,,4,107.05,,,,,,,,,1,2.0,Appartement,36.0,2.0,,,,,,2.335816,48.865855
144,2019-1502973,2019-03-25,1,Vente,1360000.0,161.0,,RUE DU FAUBOURG SAINT HONORE,3518,75008.0,75108,Paris 8e Arrondissement,75,,,75108000BD0014,,,7,98.25,,,,,,,,,1,2.0,Appartement,75.0,2.0,,,,,,2.306032,48.874427
145,2019-1502974,2019-03-05,1,Vente,298550.0,10.0,,AV DE MESSINE,6296,75008.0,75108,Paris 8e Arrondissement,75,,,75108000CI0101,,,202,,,,,,,,,,1,2.0,Appartement,45.0,2.0,,,,,,2.31455,48.876075
146,2019-1502978,2019-03-27,1,Vente,290000.0,19.0,,RUE CHATEAUBRIAND,1914,75008.0,75108,Paris 8e Arrondissement,75,,,75108000AU0023,,,1,29.25,,,,,,,,,1,2.0,Appartement,28.0,1.0,,,,,,2.300759,48.873411
147,2019-1502983,2019-03-02,1,Vente,3000.0,12.0,,RUE DE BEAUJOLAIS,0776,75001.0,75101,Paris 1er Arrondissement,75,,,75101000AV0071,,,38,,,,,,,,,,1,2.0,Appartement,8.0,1.0,,,,,,2.338792,48.866172
148,2019-1502985,2019-03-08,1,Vente,115000.0,6.0,,RUE LAVOISIER,5415,75008.0,75108,Paris 8e Arrondissement,75,,,75108000BT0045,,,27,9.15,,,,,,,,,1,2.0,Appartement,5.0,1.0,,,,,,2.321837,48.873941
149,2019-1502986,2019-03-26,1,Vente,448000.0,17.0,,RUE DE SAINTONGE,8716,75003.0,75103,Paris 3e Arrondissement,75,,,75103000AK0092,,,27,36.43,,,,,,,,,1,2.0,Appartement,36.0,1.0,,,,,,2.362283,48.861805
150,2019-1502987,2019-03-22,1,Vente,700000.0,81.0,,RUE D AMSTERDAM,0300,75008.0,75108,Paris 8e Arrondissement,75,,,75108000CD0064,,,26,50.47,,,,,,,,,1,2.0,Appartement,50.0,2.0,,,,,,2.326524,48.881951
151,2019-1502989,2019-03-22,1,Vente,302300.0,166.0,,RUE DU FAUBOURG SAINT HONORE,3518,75008.0,75108,Paris 8e Arrondissement,75,,,75108000BE0017,,,171,21.1,,,,,,,,,1,2.0,Appartement,25.0,2.0,,,,,,2.309351,48.873827
152,2019-1502997,2019-03-26,1,Vente,4500.0,53.0,,RUE CHARLOT,1880,75003.0,75103,Paris 3e Arrondissement,75,,,75103000AH0073,,,22,,,,,,,,,,1,2.0,Appartement,23.0,1.0,,,,,,2.362908,48.863415
153,2019-1502999,2019-03-08,1,Vente,2600000.0,11.0,,RUE DE LA TREMOILLE,5388,75008.0,75108,Paris 8e Arrondissement,75,,,75108000AN0015,,,6,179.9,,,,,,,,,1,2.0,Appartement,179.0,4.0,,,,,,2.303126,48.867326
154,2019-1503007,2019-04-01,1,Vente,1387500.0,7.0,,RUE DES FILLES DU CALVAIRE,3643,75003.0,75103,Paris 3e Arrondissement,75,,,75103000AJ0026,,,30,,,,,,,,,,1,2.0,Appartement,8.0,1.0,,,,,,2.3652,48.862602
155,2019-1503010,2019-03-29,1,Vente,214000.0,19.0,,RUE DES VERTUS,9715,75003.0,75103,Paris 3e Arrondissement,75,,,75103000AE0180,,,18,12.02,,,,,,,,,1,2.0,Appartement,16.0,2.0,,,,,,2.357863,48.864554
156,2019-1503012,2019-03-27,1,Vente,270000.0,19.0,,BD SAINT MARTIN,8692,75003.0,75103,Paris 3e Arrondissement,75,,,75103000AF0006,,,74,29.57,,,,,,,,,1,2.0,Appartement,29.0,1.0,,,,,,2.359801,48.868007
157,2019-1503013,2019-03-28,1,Vente,317700.0,21.0,,RUE DU PONT AUX CHOUX,7605,75003.0,75103,Paris 3e Arrondissement,75,,,75103000AL0048,,,39,22.85,,,,,,,,,1,2.0,Appartement,24.0,2.0,,,,,,2.365247,48.861013
158,2019-1503019,2019-04-02,1,Vente,463000.0,7.0,,RUE AU MAIRE,5927,75003.0,75103,Paris 3e Arrondissement,75,,,75103000AE0179,,,1003,41.8,,,,,,,,,1,2.0,Appartement,30.0,1.0,,,,,,2.357243,48.864202
159,2019-1503024,2019-03-13,1,Vente,1270.0,36.0,,RUE DU COLISEE,2185,75008.0,75108,Paris 8e Arrondissement,75,,,75108000BI0054,,,1101,,,,,,,,,,1,2.0,Appartement,6.0,1.0,,,,,,2.310759,48.871242
160,2019-1503026,2019-02-14,1,Vente,232000.0,68.0,,RUE NOTRE DAME DE NAZARETH,6834,75003.0,75103,Paris 3e Arrondissement,75,,,75103000AB0056,,,50,18.72,,,,,,,,,1,2.0,Appartement,12.0,1.0,,,,,,2.356388,48.867992
161,2019-1503030,2019-03-28,1,Vente,450000.0,33.0,,RUE CHARLOT,1880,75003.0,75103,Paris 3e Arrondissement,75,,,75103000AI0081,,,214,36.35,,,,,,,,,1,2.0,Appartement,38.0,2.0,,,,,,2.361699,48.862637
162,2019-1503032,2019-03-14,1,Vente,1285000.0,6.0,,RUE DE LABORDE,5200,75008.0,75108,Paris 8e Arrondissement,75,,,75108000BW0025,,,3,160.24,,,,,,,,,1,2.0,Appartement,92.0,4.0,,,,,,2.322056,48.876058
163,2019-1503033,2019-03-21,1,Vente,204000.0,13.0,,BD DU TEMPLE,9190,75003.0,75103,Paris 3e Arrondissement,75,,,75103000AJ0005,,,38,28.33,,,,,,,,,1,2.0,Appartement,31.0,1.0,,,,,,2.365697,48.863902
164,2019-1503037,2019-04-03,1,Vente,5000.0,339.0,,RUE SAINT MARTIN,8694,75003.0,75103,Paris 3e Arrondissement,75,,,75103000AB0112,,,45,,,,,,,,,,1,2.0,Appartement,89.0,3.0,,,,,,2.35465,48.86814
165,2019-1503046,2019-04-01,1,Vente,705000.0,5.0,,RUE DE VIENNE,9785,75008.0,75108,Paris 8e Arrondissement,75,,,75108000BW0007,,,17,60.39,,,,,,,,,1,2.0,Appartement,62.0,3.0,,,,,,2.321206,48.876667
166,2019-1503047,2019-03-21,1,Vente,2374300.0,22.0,,RUE DE COURCELLES,2387,75008.0,75108,Paris 8e Arrondissement,75,,,75108000CK0003,,,25,157.15,,,,,,,,,1,2.0,Appartement,168.0,6.0,,,,,,2.310199,48.874448
167,2019-1503051,2019-03-26,1,Vente,132500.0,21.0,,RUE BEAUJON,0779,75008.0,75108,Paris 8e Arrondissement,75,,,75108000AX0081,,,20,11.54,,,,,,,,,1,2.0,Appartement,12.0,1.0,,,,,,2.296494,48.87525
168,2019-1503052,2019-03-19,1,Vente,844750.0,51.0,,RUE AU MAIRE,5927,75003.0,75103,Paris 3e Arrondissement,75,,,75103000AD0031,,,17,,,,,,,,,,1,2.0,Appartement,78.0,3.0,,,,,,2.354826,48.864698
169,2019-1503055,2019-03-26,1,Vente,882700.0,44.0,,RUE DE MONTMORENCY,6517,75003.0,75103,Paris 3e Arrondissement,75,,,75103000AV0079,,,10,107.88,,,,,,,,,1,2.0,Appartement,30.0,3.0,,,,,,2.353499,48.863803
170,2019-1503060,2019-03-29,1,Vente,553650.0,18.0,,RUE COMMINES,2249,75003.0,75103,Paris 3e Arrondissement,75,,,75103000AK0022,,,39,41.48,,,,,,,,,1,2.0,Appartement,40.0,2.0,,,,,,2.36653,48.86206
171,2019-1503069,2019-04-01,1,Vente,174000.0,100.0,,RUE RAMBUTEAU,8009,75001.0,75101,Paris 1er Arrondissement,75,,,75101000AQ0158,,,7,17.7,,,,,,,,,1,2.0,Appartement,17.0,1.0,,,,,,2.348089,48.862595
172,2019-1503070,2019-04-03,1,Vente,377050.0,268.0,,RUE DU FAUBOURG SAINT HONORE,3518,75008.0,75108,Paris 8e Arrondissement,75,,,75108000AY0008,,,11,33.15,,,,,,,,,1,2.0,Appartement,35.0,2.0,,,,,,2.299366,48.877814
173,2019-1503073,2019-03-22,1,Vente,108000.0,97.0,,RUE BEAUBOURG,0759,75003.0,75103,Paris 3e Arrondissement,75,,,75103000AD0037,,,11,8.37,,,,,,,,,1,2.0,Appartement,9.0,1.0,,,,,,2.355089,48.864571
174,2019-1503074,2019-04-01,1,Vente,478531.44,41.0,,RUE DES TOURNELLES,9382,75003.0,75103,Paris 3e Arrondissement,75,,,75103000AM0040,,,7,37.65,,,,,,,,,1,2.0,Appartement,38.0,2.0,,,,,,2.367103,48.857949
175,2019-1503079,2019-03-29,1,Vente,503500.0,192.0,,BD HAUSSMANN,4485,75008.0,75108,Paris 8e Arrondissement,75,,,75108000BC0030,,,18,,,,,,,,,,1,2.0,Appartement,45.0,3.0,,,,,,2.305418,48.875179
176,2019-1503081,2019-04-10,1,Vente,255000.0,121.0,,RUE SAINT HONORE,8635,75001.0,75101,Paris 1er Arrondissement,75,,,75101000AT0169,,,313,17.73,,,,,,,,,1,2.0,Appartement,20.0,1.0,,,,,,2.341817,48.861395
177,2019-1503089,2019-03-21,1,Vente,249200.0,29.0,,RUE DARU,2576,75008.0,75108,Paris 8e Arrondissement,75,,,75108000AY0040,,,102,17.81,,,,,,,,,1,2.0,Appartement,17.0,1.0,,,,,,2.302806,48.878673
178,2019-1503091,2019-03-20,1,Vente,540000.0,11.0,,RUE CHATEAUBRIAND,1914,75008.0,75108,Paris 8e Arrondissement,75,,,75108000AU0013,,,406,47.92,,,,,,,,,1,2.0,Appartement,42.0,2.0,,,,,,2.301926,48.873003
179,2019-1503093,2019-03-28,1,Vente,140000.0,9.0,,RUE GRENETA,4318,75003.0,75103,Paris 3e Arrondissement,75,,,75103000AD0068,,,48,9.75,,,,,,,,,1,2.0,Appartement,13.0,1.0,,,,,,2.352768,48.865209
180,2019-1503096,2019-04-05,1,Vente,716800.0,14.0,,RUE DE LA CORDERIE,2330,75003.0,75103,Paris 3e Arrondissement,75,,,75103000AG0079,,,30,57.97,,,,,,,,,1,2.0,Appartement,54.0,3.0,,,,,,2.362968,48.865495
181,2019-1503098,2019-03-29,1,Vente,258100.0,49.0,,RUE DE L ARBRE SEC,0407,75001.0,75101,Paris 1er Arrondissement,75,,,75101000AT0127,,,22,22.25,,,,,,,,,1,2.0,Appartement,23.0,1.0,,,,,,2.342239,48.861296
182,2019-1503099,2019-03-21,1,Vente,897100.0,57.0,,RUE CHARLOT,1880,75003.0,75103,Paris 3e Arrondissement,75,,,75103000AH0075,,,9,64.87,,,,,,,,,1,2.0,Appartement,71.0,3.0,,,,,,2.362937,48.863572
183,2019-1503101,2019-03-27,1,Vente,580000.0,11.0,,RUE DU JOUR,5033,75001.0,75101,Paris 1er Arrondissement,75,,,75101000AR0103,,,5,49.42,,,,,,,,,1,2.0,Appartement,35.0,2.0,,,,,,2.344193,48.863734
184,2019-1503108,2019-04-12,1,Vente,10392500.0,5.0,,AV MONTAIGNE,6450,75008.0,75108,Paris 8e Arrondissement,75,,,75108000AO0053,,,6,350.91,,,,,,,,,1,2.0,Appartement,376.0,9.0,,,,,,2.302272,48.86549
185,2019-1503112,2019-04-12,1,Vente,147250.0,5.0,,AV MONTAIGNE,6450,75008.0,75108,Paris 8e Arrondissement,75,,,75108000AO0053,,,76,20.51,,,,,,,,,1,2.0,Appartement,25.0,1.0,,,,,,2.302272,48.86549
186,2019-1503114,2019-04-05,1,Vente,38000.0,12.0,,RUE PELOUZE,7231,75008.0,75108,Paris 8e Arrondissement,75,,,75108000CF0004,,,34,6.02,,,,,,,,,1,2.0,Appartement,69.0,3.0,,,,,,2.317791,48.881157
187,2019-1503122,2019-03-21,1,Vente,150130.0,13.0,,BD DU TEMPLE,9190,75003.0,75103,Paris 3e Arrondissement,75,,,75103000AJ0005,,,39,25.15,,,,,,,,,1,2.0,Appartement,26.0,1.0,,,,,,2.365697,48.863902
188,2019-1503125,2019-03-22,1,Vente,238000.0,17.0,,RUE MONTMARTRE,6513,75001.0,75101,Paris 1er Arrondissement,75,,,75101000AR0079,,,223,19.71,,,,,,,,,1,2.0,Appartement,22.0,2.0,,,,,,2.344949,48.864439
189,2019-1503129,2019-03-26,1,Vente,808000.0,9.0,,RUE NOTRE DAME DE NAZARETH,6834,75003.0,75103,Paris 3e Arrondissement,75,,,75103000AF0094,,,15,82.02,,,,,,,,,1,2.0,Appartement,81.0,3.0,,,,,,2.360699,48.866883
190,2019-1503133,2019-04-02,1,Vente,940000.0,10.0,,RUE QUENTIN BAUCHART,7954,75008.0,75108,Paris 8e Arrondissement,75,,,75108000AP0075,,,29,,,,,,,,,,1,2.0,Appartement,55.0,2.0,,,,,,2.300139,48.869049
191,2019-1503135,2019-04-03,1,Vente,540500.0,10.0,,RUE DUPHOT,2999,75001.0,75101,Paris 1er Arrondissement,75,,,75101000BC0088,,,46,,,,,,,,,,1,2.0,Appartement,45.0,2.0,,,,,,2.325977,48.868209
192,2019-1503136,2019-04-03,2,Vente,439500.0,10.0,,RUE DUPHOT,2999,75001.0,75101,Paris 1er Arrondissement,75,,,75101000BC0088,,,45,,,,,,,,,,1,2.0,Appartement,43.0,2.0,,,,,,2.325977,48.868209
193,2019-1503140,2019-03-22,1,Vente,186000.0,79.0,,RUE NOTRE DAME DE NAZARETH,6834,75003.0,75103,Paris 3e Arrondissement,75,,,75103000AB0107,,,20,17.73,,,,,,,,,1,2.0,Appartement,15.0,2.0,,,,,,2.353976,48.867925
194,2019-1503141,2019-03-29,1,Vente,703000.0,70.0,,RUE DE ROME,8339,75008.0,75108,Paris 8e Arrondissement,75,,,75108000CE0014,,,14,,,,,,,,,,1,2.0,Appartement,85.0,5.0,,,,,,2.321628,48.880605
195,2019-1503142,2019-04-04,1,Vente,338940.0,31.0,T,RUE DES TOURNELLES,9382,75003.0,75103,Paris 3e Arrondissement,75,,,75103000AN0085,,,106,24.29,,,,,,,,,1,2.0,Appartement,26.0,1.0,,,,,,2.367066,48.856285
196,2019-1503146,2019-03-15,1,Vente,564150.0,156.0,,RUE DU TEMPLE,9191,75003.0,75103,Paris 3e Arrondissement,75,,,75103000AI0002,,,7,50.55,,,,,,,,,1,2.0,Appartement,47.0,3.0,,,,,,2.359558,48.864481
197,2019-1503148,2019-04-05,1,Vente,478500.0,3.0,,RUE DU GENERAL FOY,4041,75008.0,75108,Paris 8e Arrondissement,75,,,75108000CI0053,,,42,,,,,,,,,,1,2.0,Appartement,53.0,3.0,,,,,,2.318358,48.87705
198,2019-1503151,2019-04-15,1,Vente,867500.0,15.0,,RUE SAINT GILLES,8627,75003.0,75103,Paris 3e Arrondissement,75,,,75103000AN0033,,,11,77.27,,,,,,,,,1,2.0,Appartement,56.0,4.0,,,,,,2.365149,48.857851
199,2019-1503153,2019-03-29,1,Vente,512500.0,76.0,,RUE DU VERTBOIS,9711,75003.0,75103,Paris 3e Arrondissement,75,,,75103000AB0146,,,126,42.38,,,,,,,,,1,2.0,Appartement,46.0,2.0,,,,,,2.355225,48.86775
200,2019-1503163,2019-04-03,1,Vente,230000.0,7.0,,RUE BAILLY,0636,75003.0,75103,Paris 3e Arrondissement,75,,,75103000AE0160,,,8,20.95,,,,,,,,,1,2.0,Appartement,20.0,1.0,,,,,,2.356462,48.8649
201,2019-1503164,2019-04-10,1,Vente,570000.0,54.0,,RUE DE MIROMESNIL,6387,75008.0,75108,Paris 8e Arrondissement,75,,,75108000CJ0025,,,7,56.56,,,,,,,,,1,2.0,Appartement,59.0,3.0,,,,,,2.316042,48.874872
202,2019-1503167,2019-04-03,1,Vente,140000.0,7.0,,RUE DE MONCEAU,6419,75008.0,75108,Paris 8e Arrondissement,75,,,75108000BC0024,,,138,9.71,,,,,,,,,1,2.0,Appartement,9.0,1.0,,,,,,2.30612,48.875493
203,2019-1503169,2019-04-12,1,Vente,300000.0,40.0,,RUE DE TURBIGO,9504,75003.0,75103,Paris 3e Arrondissement,75,,,75103000AD0051,,,12,19.8,,,,,,,,,1,2.0,Appartement,20.0,1.0,,,,,,2.354042,48.86481
204,2019-1503170,2019-04-10,1,Vente,400000.0,6.0,,RUE DES HAUDRIETTES,4483,75003.0,75103,Paris 3e Arrondissement,75,,,75103000AR0005,,,117,,,,,,,,,,1,2.0,Appartement,23.0,1.0,,,,,,2.357892,48.86205
205,2019-1503172,2019-04-04,1,Vente,70000.0,19.0,,PL DU MARCHE ST HONORE,6033,75001.0,75101,Paris 1er Arrondissement,75,,,75101000AZ0030,,,35,4.3,,,,,,,,,1,2.0,Appartement,13.0,2.0,,,,,,2.330927,48.866588
206,2019-1503173,2019-04-10,1,Vente,292500.0,53.0,,RUE NOTRE DAME DE NAZARETH,6834,75003.0,75103,Paris 3e Arrondissement,75,,,75103000AB0087,,,36,24.9,,,,,,,,,1,2.0,Appartement,29.0,2.0,,,,,,2.356554,48.867531
207,2019-1503175,2019-03-28,1,Vente,145000.0,1.0,,RUE AUX OURS,6983,75003.0,75103,Paris 3e Arrondissement,75,,,75103000AU0067,,,8,17.15,,,,,,,,,1,2.0,Appartement,20.0,1.0,,,,,,2.352127,48.862932
208,2019-1503179,2019-04-12,1,Vente,202000.0,41.0,,RUE DE LIEGE,5665,75008.0,75108,Paris 8e Arrondissement,75,,,75108000BY0004,,,22,,,,,,,,,,1,2.0,Appartement,10.0,1.0,,,,,,2.325101,48.879043
209,2019-1503192,2019-03-29,1,Vente,480000.0,33.0,,RUE DE TURENNE,9506,75003.0,75103,Paris 3e Arrondissement,75,,,75103000AN0017,,,13,42.05,,,,,,,,,1,2.0,Appartement,18.0,1.0,,,,,,2.364221,48.856734
210,2019-1503193,2019-04-03,1,Vente,1468500.0,5.0,,RUE DE LABORDE,5200,75008.0,75108,Paris 8e Arrondissement,75,,,75108000BW0035,,,21,118.48,,,,,,,,,1,2.0,Appartement,11.0,1.0,,,,,,2.322612,48.875627
211,2019-1503197,2019-04-12,1,Vente,140000.0,5.0,,RUE JEAN JACQUES ROUSSEAU,4901,75001.0,75101,Paris 1er Arrondissement,75,,,75101000AS0017,,,8,9.96,,,,,,,,,1,2.0,Appartement,10.0,1.0,,,,,,2.339872,48.862374
212,2019-1503199,2019-04-18,1,Vente,200000.0,18.0,,RUE DU GRENIER SAINT LAZARE,4320,75003.0,75103,Paris 3e Arrondissement,75,,,75103000AV0108,,,11,23.81,,,,,,,,,1,2.0,Appartement,24.0,1.0,,,,,,2.353568,48.863154
213,2019-1503200,2019-04-24,1,Vente,26581.0,11.0,,RUE DE SAINTONGE,8716,75003.0,75103,Paris 3e Arrondissement,75,,,75103000AQ0038,,,40,,,,,,,,,,1,2.0,Appartement,132.0,4.0,,,,,,2.361804,48.861426
214,2019-1503202,2019-03-27,1,Vente,40000.0,94.0,,BD DE SEBASTOPOL,8894,75003.0,75103,Paris 3e Arrondissement,75,,,75103000AD0003,,,22,4.53,,,,,,,,,1,2.0,Appartement,6.0,1.0,,,,,,2.353041,48.866526
215,2019-1503205,2019-04-18,1,Vente,925100.0,17.0,,RUE PASTOURELLE,7094,75003.0,75103,Paris 3e Arrondissement,75,,,75103000AQ0002,,,86,64.97,,,,,,,,,1,2.0,Appartement,72.0,2.0,,,,,,2.36009,48.862145
216,2019-1503206,2019-04-04,1,Vente,900000.0,32.0,,RUE LA BOETIE,5194,75008.0,75108,Paris 8e Arrondissement,75,,,75108000CJ0012,,,124,72.36,,,,,,,,,1,2.0,Appartement,80.0,3.0,,,,,,2.314968,48.874294
217,2019-1503208,2019-04-12,1,Vente,546000.0,10.0,,RUE COQUILLIERE,2318,75001.0,75101,Paris 1er Arrondissement,75,,,75101000AR0094,,,112,53.84,,,,,,,,,1,2.0,Appartement,55.0,2.0,,,,,,2.343699,48.863762
218,2019-1503214,2019-04-04,1,Vente,1000000.0,53.0,,AV MONTAIGNE,6450,75008.0,75108,Paris 8e Arrondissement,75,,,75108000AQ0058,,,447,,,,,,,,,,1,2.0,Appartement,29.0,1.0,,,,,,2.307406,48.868413
219,2019-1503217,2019-04-16,1,Vente,200000.0,220.0,,RUE DE RIVOLI,8249,75001.0,75101,Paris 1er Arrondissement,75,,,75101000AY0013,,,104,14.2,,,,,,,,,1,2.0,Appartement,15.0,1.0,,,,,,2.329031,48.865065
220,2019-1503221,2019-04-19,1,Vente,320000.0,38.0,,RUE DE POITOU,7572,75003.0,75103,Paris 3e Arrondissement,75,,,75103000AK0095,,,25,22.21,,,,,,,,,1,2.0,Appartement,14.0,1.0,,,,,,2.361972,48.861813
221,2019-1503223,2019-04-03,1,Vente,720500.0,342.0,,RUE SAINT HONORE,8635,75001.0,75101,Paris 1er Arrondissement,75,,,75101000AZ0018,,,4,46.95,,,,,,,,,1,2.0,Appartement,48.0,1.0,,,,,,2.330146,48.866142
222,2019-1503226,2019-04-05,1,Vente,430000.0,8.0,,RUE CAFFARELLI,1413,75003.0,75103,Paris 3e Arrondissement,75,,,75103000AH0101,,,2,29.14,,,,,,,,,1,2.0,Appartement,30.0,1.0,,,,,,2.361963,48.863554
223,2019-1503232,2019-04-01,1,Vente,704450.0,65.0,,RUE SAINT HONORE,8635,75001.0,75101,Paris 1er Arrondissement,75,,,75101000AT0066,,,6,49.4,,,,,,,,,1,2.0,Appartement,50.0,2.0,,,,,,2.344559,48.860996
224,2019-1503235,2019-04-16,1,Vente,440000.0,9.0,,RUE DE LABORDE,5200,75008.0,75108,Paris 8e Arrondissement,75,,,75108000BW0040,,,14,,,,,,,,,,1,2.0,Appartement,47.0,1.0,,,,,,2.322081,48.875556
225,2019-1503236,2019-04-11,1,Vente,3000.0,5.0,,RUE DE LABORDE,5200,75008.0,75108,Paris 8e Arrondissement,75,,,75108000BW0035,,,64,,,,,,,,,,1,2.0,Appartement,106.0,5.0,,,,,,2.322612,48.875627
226,2019-1503238,2019-04-17,1,Vente,525000.0,30.0,,RUE DE WASHINGTON,9942,75008.0,75108,Paris 8e Arrondissement,75,,,75108000BF0024,,,16,,,,,,,,,,1,2.0,Appartement,70.0,3.0,,,,,,2.303693,48.873245
227,2019-1503242,2019-04-11,1,Vente,3100000.0,26.0,,RUE DE TEHERAN,9185,75008.0,75108,Paris 8e Arrondissement,75,,,75108000CH0002,,,40,,,,,,,,,,1,2.0,Appartement,40.0,1.0,,,,,,2.312705,48.878301
228,2019-1503243,2019-04-18,1,Vente,320000.0,27.0,,RUE DE BERNE,0900,75008.0,75108,Paris 8e Arrondissement,75,,,75108000CE0035,,,8,39.62,,,,,,,,,1,2.0,Appartement,40.0,2.0,,,,,,2.322525,48.88133
229,2019-1503244,2019-04-05,1,Vente,350000.0,81.0,,RUE DU TEMPLE,9191,75003.0,75103,Paris 3e Arrondissement,75,,,75103000AT0034,,,128,29.52,,,,,,,,,1,2.0,Appartement,32.0,2.0,,,,,,2.355952,48.861719
230,2019-1503246,2019-04-30,1,Vente,880000.0,82.0,,RUE DES ARCHIVES,0420,75003.0,75103,Paris 3e Arrondissement,75,,,75103000AI0064,,,7,81.46,,,,,,,,,1,2.0,Appartement,79.0,3.0,,,,,,2.360616,48.86291
231,2019-1503248,2019-04-17,1,Vente,335000.0,62.0,,RUE NOTRE DAME DE NAZARETH,6834,75003.0,75103,Paris 3e Arrondissement,75,,,75103000AB0059,,,49,35.02,,,,,,,,,1,2.0,Appartement,48.0,2.0,,,,,,2.356977,48.867907
232,2019-1503250,2019-04-18,1,Vente,2379000.0,9.0,,BD DE LA MADELEINE,5888,75001.0,75101,Paris 1er Arrondissement,75,,,75101000BC0041,,,58,146.4,,,,,,,,,1,2.0,Appartement,146.0,4.0,,,,,,2.326882,48.869331
233,2019-1503254,2019-04-17,1,Vente,850000.0,12.0,,RUE PELOUZE,7231,75008.0,75108,Paris 8e Arrondissement,75,,,75108000CF0004,,,33,76.93,,,,,,,,,1,2.0,Appartement,77.0,3.0,,,,,,2.317791,48.881157
234,2019-1503259,2019-04-10,1,Vente,254000.0,41.0,,RUE CHAPON,1771,75003.0,75103,Paris 3e Arrondissement,75,,,75103000AV0063,,,2,20.02,,,,,,,,,1,2.0,Appartement,23.0,1.0,,,,,,2.353612,48.863979
235,2019-1503262,2019-04-05,1,Vente,530000.0,22.0,,RUE MESLAY,6286,75003.0,75103,Paris 3e Arrondissement,75,,,75103000AF0009,,,18,52.61,,,,,,,,,1,2.0,Appartement,53.0,3.0,,,,,,2.36027,48.867943
236,2019-1503269,2019-04-30,1,Vente,388000.0,26.0,,QUAI DU LOUVRE,5824,75001.0,75101,Paris 1er Arrondissement,75,,,75101000AK0020,,,9,,,,,,,,,,1,2.0,Appartement,37.0,1.0,,,,,,2.340792,48.859078
237,2019-1503272,2019-04-26,1,Vente,746300.0,122.0,,BD HAUSSMANN,4485,75008.0,75108,Paris 8e Arrondissement,75,,,75108000CJ0050,,,11,55.78,,,,,,,,,1,2.0,Appartement,55.0,2.0,,,,,,2.31812,48.875212
238,2019-1503274,2019-05-06,1,Vente,467000.0,54.0,,RUE DE MIROMESNIL,6387,75008.0,75108,Paris 8e Arrondissement,75,,,75108000CJ0025,,,14,39.87,,,,,,,,,1,2.0,Appartement,42.0,2.0,,,,,,2.316042,48.874872
239,2019-1503285,2019-04-30,1,Vente,288800.0,11.0,,RUE HEROLD,4619,75001.0,75101,Paris 1er Arrondissement,75,,,75101000AR0011,,,8,22.66,,,,,,,,,1,2.0,Appartement,25.0,1.0,,,,,,2.341334,48.864943
240,2019-1503286,2019-04-18,1,Vente,285000.0,68.0,,RUE NOTRE DAME DE NAZARETH,6834,75003.0,75103,Paris 3e Arrondissement,75,,,75103000AB0056,,,64,18.7,,,,,,,,,1,2.0,Appartement,21.0,1.0,,,,,,2.356388,48.867992
241,2019-1503288,2019-04-18,1,Vente,255000.0,51.0,,RUE NOTRE DAME DE NAZARETH,6834,75003.0,75103,Paris 3e Arrondissement,75,,,75103000AB0085,,,16,21.71,,,,,,,,,1,2.0,Appartement,22.0,1.0,,,,,,2.356795,48.86752
242,2019-1503295,2019-04-18,1,Vente,3600000.0,71.0,,AV FRANKLIN D ROOSEVELT,3824,75008.0,75108,Paris 8e Arrondissement,75,,,75108000BE0041,,,14,,,,,,,,,,1,2.0,Appartement,9.0,1.0,,,,,,2.309771,48.872677
243,2019-1503299,2019-04-19,1,Vente,405000.0,18.0,,RUE DE BERRI,0904,75008.0,75108,Paris 8e Arrondissement,75,,,75108000BF0065,,,320,33.67,,,,,,,,,1,2.0,Appartement,36.0,1.0,,,,,,2.305618,48.872708
244,2019-1503300,2019-05-02,1,Vente,370000.0,117.0,,RUE DE TURENNE,9506,75003.0,75103,Paris 3e Arrondissement,75,,,75103000AJ0057,,,8,35.09,,,,,,,,,1,2.0,Appartement,38.0,2.0,,,,,,2.364397,48.863171
245,2019-1503302,2019-04-18,1,Vente,15000.0,187.0,,RUE DU FAUBOURG SAINT HONORE,3518,75008.0,75108,Paris 8e Arrondissement,75,,,75108000AW0027,,,36,,,,,,,,,,1,2.0,Appartement,58.0,3.0,,,,,,2.304125,48.875332
246,2019-1503308,2019-04-25,1,Vente,140000.0,94.0,,BD DE SEBASTOPOL,8894,75003.0,75103,Paris 3e Arrondissement,75,,,75103000AD0003,,,19,11.21,,,,,,,,,1,2.0,Appartement,11.0,2.0,,,,,,2.353041,48.866526
247,2019-1503325,2019-05-06,1,Vente,1214850.0,18.0,,RUE DES MINIMES,6375,75003.0,75103,Paris 3e Arrondissement,75,,,75103000AN0030,,,21,84.9,,,,,,,,,1,2.0,Appartement,90.0,3.0,,,,,,2.364675,48.857504
248,2019-1503328,2019-04-19,1,Vente,312500.0,18.0,,RUE VOLTA,9905,75003.0,75103,Paris 3e Arrondissement,75,,,75103000AE0138,,,31,27.83,,,,,,,,,1,2.0,Appartement,28.0,2.0,,,,,,2.357217,48.864976
249,2019-1503330,2019-05-13,1,Vente,387000.0,5.0,,RUE LAVOISIER,5415,75008.0,75108,Paris 8e Arrondissement,75,,,75108000BT0032,,,34,32.41,,,,,,,,,1,2.0,Appartement,22.0,2.0,,,,,,2.321816,48.873596
250,2019-1503338,2019-05-14,1,Vente,791000.0,13.0,,RUE NOTRE DAME DE NAZARETH,6834,75003.0,75103,Paris 3e Arrondissement,75,,,75103000AF0092,,,42,72.63,,,,,,,,,1,2.0,Appartement,72.0,3.0,,,,,,2.360208,48.866949
251,2019-1503340,2019-05-10,1,Vente,238000.0,15.0,,BD DU TEMPLE,9190,75003.0,75103,Paris 3e Arrondissement,75,,,75103000AJ0004,,,8,15.75,,,,,,,,,1,2.0,Appartement,30.0,1.0,,,,,,2.365575,48.864018
252,2019-1503341,2019-05-11,1,Vente,115000.0,19.0,,RUE DU JOUR,5033,75001.0,75101,Paris 1er Arrondissement,75,,,75101000AR0107,,,118,14.69,,,,,,,,,1,2.0,Appartement,18.0,1.0,,,,,,2.344501,48.863896
253,2019-1503342,2019-05-09,1,Vente,1349515.0,38.0,,RUE DE TURBIGO,9504,75003.0,75103,Paris 3e Arrondissement,75,,,75103000AD0053,,,10,95.46,,,,,,,,,1,2.0,Appartement,99.0,4.0,,,,,,2.353879,48.864805
254,2019-1503343,2019-05-06,1,Vente,160000.0,82.0,,BD MALESHERBES,5951,75008.0,75108,Paris 8e Arrondissement,75,,,75108000CG0021,,,8,14.8,,,,,,,,,1,2.0,Appartement,15.0,1.0,,,,,,2.314393,48.880118
255,2019-1503346,2019-04-30,1,Vente,116000.0,19.0,,RUE DE LA TREMOILLE,5388,75008.0,75108,Paris 8e Arrondissement,75,,,75108000AN0030,,,38,6.74,,,,,,,,,1,2.0,Appartement,8.0,1.0,,,,,,2.303941,48.86795
256,2019-1503354,2019-04-27,1,Vente,15000.0,13.0,,RUE PASTOURELLE,7094,75003.0,75103,Paris 3e Arrondissement,75,,,75103000AQ0018,,,94,,,,,,,,,,1,2.0,Appartement,45.0,2.0,,,,,,2.360246,48.861896
257,2019-1503357,2019-04-29,1,Vente,958700.0,7.0,,RUE ELZEVIR,3196,75003.0,75103,Paris 3e Arrondissement,75,,,75103000AO0020,,,34,50.36,,,,,,,,,1,2.0,Appartement,48.0,2.0,,,,,,2.361426,48.858344
258,2019-1503358,2019-04-26,1,Vente,1000000.0,6.0,,RUE DE BEAUCE,0761,75003.0,75103,Paris 3e Arrondissement,75,,,75103000AI0092,,,1028,76.7,,,,,,,,,1,2.0,Appartement,77.0,3.0,,,,,,2.36094,48.862446
259,2019-1503360,2019-05-06,1,Vente,259117.0,17.0,,BD SAINT MARTIN,8692,75003.0,75103,Paris 3e Arrondissement,75,,,75103000AF0008,,,127,22.66,,,,,,,,,1,2.0,Appartement,35.0,2.0,,,,,,2.360036,48.867935
260,2019-1503362,2019-05-02,1,Vente,1140000.0,26.0,,RUE DU MONT THABOR,6537,75001.0,75101,Paris 1er Arrondissement,75,,,75101000BD0034,,,11,88.31,,,,,,,,,1,2.0,Appartement,86.0,4.0,,,,,,2.327284,48.866398
261,2019-1503364,2019-05-07,1,Vente,156400.0,27.0,,RUE AU MAIRE,5927,75003.0,75103,Paris 3e Arrondissement,75,,,75103000AE0107,,,8,13.95,,,,,,,,,1,2.0,Appartement,18.0,1.0,,,,,,2.355971,48.864537
262,2019-1503365,2019-04-29,1,Vente,630000.0,119.0,,RUE SAINT DENIS,8525,75001.0,75101,Paris 1er Arrondissement,75,,,75101000AQ0095,,,27,63.0,,,,,,,,,1,2.0,Appartement,63.0,3.0,,,,,,2.349162,48.863042
263,2019-1503373,2019-04-25,1,Vente,645620.0,23.0,,RUE BERGER,0885,75001.0,75101,Paris 1er Arrondissement,75,,,75101000AO0001,,,100217,57.87,,,,,,,,,1,2.0,Appartement,59.0,2.0,,,,,,2.345729,48.860977
264,2019-1503381,2019-04-29,1,Vente,100.0,4.0,,RUE JEAN MERMOZ,4921,75008.0,75108,Paris 8e Arrondissement,75,,,75108000BH0057,,,65,,,,,,,,,,1,2.0,Appartement,68.0,2.0,,,,,,2.311069,48.869846
265,2019-1503383,2019-04-29,1,Vente,100.0,4.0,,RUE JEAN MERMOZ,4921,75008.0,75108,Paris 8e Arrondissement,75,,,75108000BH0057,,,57,,,,,,,,,,1,2.0,Appartement,68.0,2.0,,,,,,2.311069,48.869846
266,2019-1503389,2019-04-18,1,Vente,544100.0,6.0,,RUE BAILLEUL,0632,75001.0,75101,Paris 1er Arrondissement,75,,,75101000AT0171,,,20,43.09,,,,,,,,,1,2.0,Appartement,49.0,2.0,,,,,,2.342036,48.861112
267,2019-1503396,2019-04-24,1,Vente,540000.0,80.0,,RUE DE ROME,8339,75008.0,75108,Paris 8e Arrondissement,75,,,75108000CE0005,,,5,49.67,,,,,,,,,1,2.0,Appartement,45.0,2.0,,,,,,2.321263,48.881121
268,2019-1503397,2019-05-09,1,Vente,2300000.0,8.0,,AV MONTAIGNE,6450,75008.0,75108,Paris 8e Arrondissement,75,,,75108000AK0045,,,666,103.97,,,,,,,,,1,2.0,Appartement,110.0,2.0,,,,,,2.304497,48.865627
269,2019-1503399,2019-05-10,1,Vente,6624.0,11.0,,RUE PORTEFOIN,7729,75003.0,75103,Paris 3e Arrondissement,75,,,75103000AI0028,,,130,,,,,,,,,,1,2.0,Appartement,48.0,2.0,,,,,,2.35952,48.863538
270,2019-1503412,2019-05-21,1,Vente,1000000.0,4.0,,RUE CHATEAUBRIAND,1914,75008.0,75108,Paris 8e Arrondissement,75,,,75108000AU0034,,,7,,,,,,,,,,1,2.0,Appartement,120.0,4.0,,,,,,2.30273,48.873246
271,2019-1503418,2019-05-09,1,Vente,250000.0,4.0,,RUE SAINTE ANASTASE,8531,75003.0,75103,Paris 3e Arrondissement,75,,,75103000AL0090,,,39,25.69,,,,,,,,,1,2.0,Appartement,26.0,2.0,,,,,,2.364272,48.859669
272,2019-1503419,2019-05-16,1,Vente,250000.0,36.0,,RUE DE MONCEAU,6419,75008.0,75108,Paris 8e Arrondissement,75,,,75108000CL0030,,,143,22.99,,,,,,,,,1,2.0,Appartement,23.0,2.0,,,,,,2.309773,48.877028
273,2019-1503420,2019-05-15,1,Vente,1565000.0,20.0,,RUE DES COUTURES SAINT GERVAIS,2412,75003.0,75103,Paris 3e Arrondissement,75,,,75103000AL0006,,,6,85.04,,,,,,,,,1,2.0,Appartement,80.0,2.0,,,,,,2.362159,48.860401
274,2019-1503423,2019-05-16,1,Vente,230000.0,18.0,,RUE DE LA CORDERIE,2330,75003.0,75103,Paris 3e Arrondissement,75,,,75103000AG0077,,,14,15.47,,,,,,,,,1,2.0,Appartement,16.0,1.0,,,,,,2.362558,48.865405
275,2019-1503424,2019-05-17,1,Vente,240000.0,60.0,,RUE VIEILLE DU TEMPLE,9783,75003.0,75103,Paris 3e Arrondissement,75,,,75103000AO0005,,,33,19.73,,,,,,,,,1,2.0,Appartement,19.0,1.0,,,,,,2.359416,48.85886
276,2019-1503425,2019-05-22,1,Vente,684000.0,15.0,,RUE DU JOUR,5033,75001.0,75101,Paris 1er Arrondissement,75,,,75101000AR0105,,,104,52.5,,,,,,,,,1,2.0,Appartement,52.0,2.0,,,,,,2.344371,48.863807
277,2019-1503428,2019-05-13,1,Vente,280000.0,123.0,,RUE SAINT HONORE,8635,75001.0,75101,Paris 1er Arrondissement,75,,,75101000AT0169,,,207,27.13,,,,,,,,,1,2.0,Appartement,27.0,1.0,,,,,,2.341817,48.861395
278,2019-1503430,2019-05-17,1,Vente,340000.0,189.0,,RUE DU FAUBOURG SAINT HONORE,3518,75008.0,75108,Paris 8e Arrondissement,75,,,75108000AW0026,,,11,25.13,,,,,,,,,1,2.0,Appartement,31.0,2.0,,,,,,2.303909,48.87542
279,2019-1503432,2019-05-22,1,Vente,650000.0,210.0,,RUE DE RIVOLI,8249,75001.0,75101,Paris 1er Arrondissement,75,,,75101000AY0044,,,18,38.99,,,,,,,,,1,2.0,Appartement,39.0,1.0,,,,,,2.330051,48.864697
280,2019-1503433,2019-05-22,1,Vente,425000.0,23.0,,RUE MESLAY,6286,75003.0,75103,Paris 3e Arrondissement,75,,,75103000AF0058,,,60,38.44,,,,,,,,,1,2.0,Appartement,38.0,2.0,,,,,,2.359931,48.867496
281,2019-1503434,2019-05-23,1,Vente,569000.0,30.0,,RUE BEAUBOURG,0759,75003.0,75103,Paris 3e Arrondissement,75,,,75103000AT0078,,,11,51.56,,,,,,,,,1,2.0,Appartement,43.0,3.0,,,,,,2.354479,48.861846
282,2019-1503436,2019-05-14,1,Vente,1080000.0,11.0,,RUE DE BERNE,0900,75008.0,75108,Paris 8e Arrondissement,75,,,75108000CE0027,,,6,105.08,,,,,,,,,1,2.0,Appartement,99.0,4.0,,,,,,2.323251,48.880528
283,2019-1503440,2019-05-13,1,Vente,2320000.0,11.0,B,RUE DE VEZELAY,9723,75008.0,75108,Paris 8e Arrondissement,75,,,75108000CH0019,,,9,193.57,,,,,,,,,1,2.0,Appartement,165.0,5.0,,,,,,2.313602,48.878396
284,2019-1503441,2019-05-07,1,Vente,10000.0,85.0,,RUE DU TEMPLE,9191,75003.0,75103,Paris 3e Arrondissement,75,,,75103000AT0041,,,88,,,,,,,,,,1,2.0,Appartement,45.0,2.0,,,,,,2.356452,48.861888
285,2019-1503448,2019-05-07,1,Vente,410000.0,76.0,,RUE BEAUBOURG,0759,75003.0,75103,Paris 3e Arrondissement,75,,,75103000AS0001,,,267,,,,,,,,,,1,2.0,Appartement,36.0,1.0,,,,,,2.355264,48.863939
286,2019-1503450,2019-05-09,1,Vente,481132.0,11.0,,RUE DE LA FERRONNERIE,3621,75001.0,75101,Paris 1er Arrondissement,75,,,75101000AO0074,,,7,45.01,,,,,,,,,1,2.0,Appartement,40.0,2.0,,,,,,2.347674,48.860104
287,2019-1503451,2019-05-07,1,Vente,1.0,64.0,,RUE VIEILLE DU TEMPLE,9783,75003.0,75103,Paris 3e Arrondissement,75,,,75103000AO0004,,,192,,,,,,,,,,1,2.0,Appartement,97.0,5.0,,,,,,2.359843,48.858857
288,2019-1503455,2019-05-07,1,Vente,160000.0,14.0,,RUE DU FAUBOURG SAINT HONORE,3518,75008.0,75108,Paris 8e Arrondissement,75,,,75108000BR0029,,,56,9.62,,,,,,,,,1,2.0,Appartement,8.0,1.0,,,,,,2.322635,48.869041
289,2019-1503457,2019-05-23,1,Vente,6250.0,53.0,,RUE FRANCOIS 1ER,3814,75008.0,75108,Paris 8e Arrondissement,75,,,75108000AP0020,,,247,,,,,,,,,,1,2.0,Appartement,99.0,1.0,,,,,,2.301629,48.869515
290,2019-1503465,2019-05-14,1,Vente,350000.0,11.0,,RUE SAINT GILLES,8627,75003.0,75103,Paris 3e Arrondissement,75,,,75103000AN0034,,,43,35.5,,,,,,,,,1,2.0,Appartement,35.0,2.0,,,,,,2.365304,48.857822
291,2019-1503467,2019-05-06,1,Vente,724000.0,14.0,,RUE D ALGER,0191,75001.0,75101,Paris 1er Arrondissement,75,,,75101000AY0036,,,6,,,,,,,,,,1,2.0,Appartement,36.0,2.0,,,,,,2.330206,48.865499
292,2019-1503473,2019-05-20,1,Vente,280000.0,14.0,,RUE DE BERNE,0900,75008.0,75108,Paris 8e Arrondissement,75,,,75108000CE0083,,,25,,,,,,,,,,1,2.0,Appartement,23.0,2.0,,,,,,2.323552,48.880863
293,2019-1503479,2019-05-17,1,Vente,4000.0,8.0,,RUE D ANJOU,0351,75008.0,75108,Paris 8e Arrondissement,75,,,75108000BR0058,,,624,,,,,,,,,,1,2.0,Appartement,30.0,2.0,,,,,,2.321147,48.869675
294,2019-1503481,2019-05-28,1,Vente,1224500.0,74.0,,RUE DE TURENNE,9506,75003.0,75103,Paris 3e Arrondissement,75,,,75103000AL0069,,,5,104.33,,,,,,,,,1,2.0,Appartement,105.0,4.0,,,,,,2.365129,48.860378
295,2019-1503482,2019-05-27,1,Vente,338100.0,31.0,,RUE CHARLOT,1880,75003.0,75103,Paris 3e Arrondissement,75,,,75103000AI0084,,,12,25.54,,,,,,,,,1,2.0,Appartement,28.0,1.0,,,,,,2.361698,48.862514
296,2019-1503483,2019-05-17,1,Vente,2150000.0,14.0,,RUE DE LA PEPINIERE,7239,75008.0,75108,Paris 8e Arrondissement,75,,,75108000BW0037,,,14,183.11,,,,,,,,,1,2.0,Appartement,192.0,6.0,,,,,,2.322317,48.875359
297,2019-1503484,2019-05-06,1,Vente,741000.0,8.0,B,RUE SAINT HYACINTHE,8641,75001.0,75101,Paris 1er Arrondissement,75,,,75101000AZ0086,,,114,,,,,,,,,,1,2.0,Appartement,77.0,3.0,,,,,,2.331789,48.866188
298,2019-1503488,2019-04-29,1,Vente,352000.0,28.0,,RUE BEAUBOURG,0759,75003.0,75103,Paris 3e Arrondissement,75,,,75103000AT0012,,,74,,,,,,,,,,1,2.0,Appartement,25.0,1.0,,,,,,2.354201,48.861762
299,2019-1503490,2019-05-23,1,Vente,368221.0,262.0,,RUE SAINT HONORE,8635,75001.0,75101,Paris 1er Arrondissement,75,,,75101000AX0103,,,42,31.6,,,,,,,,,1,2.0,Appartement,32.0,2.0,,,,,,2.333623,48.864394
300,2019-1503500,2019-05-28,1,Vente,950000.0,8.0,,AV MONTAIGNE,6450,75008.0,75108,Paris 8e Arrondissement,75,,,75108000AK0045,,,571,,,,,,,,,,1,2.0,Appartement,45.0,1.0,,,,,,2.304497,48.865627
301,2019-1503501,2019-05-28,2,Vente,1900000.0,8.0,,AV MONTAIGNE,6450,75008.0,75108,Paris 8e Arrondissement,75,,,75108000AK0045,,,573,,,,,,,,,,1,2.0,Appartement,46.0,1.0,,,,,,2.304497,48.865627
302,2019-1503505,2019-05-28,1,Vente,483150.0,185.0,,RUE DU TEMPLE,9191,75003.0,75103,Paris 3e Arrondissement,75,,,75103000AF0118,,,10,42.86,,,,,,,,,1,2.0,Appartement,40.0,2.0,,,,,,2.36013,48.865591
303,2019-1503507,2019-05-28,1,Vente,540465.0,3.0,,RUE ETIENNE MARCEL,3392,75001.0,75101,Paris 1er Arrondissement,75,,,75101000AQ0117,,,5,50.15,,,,,,,,,1,2.0,Appartement,50.0,2.0,,,,,,2.350362,48.863311
304,2019-1503509,2019-06-05,1,Vente,10000.0,55.0,,BD DES BATIGNOLLES,0719,75008.0,75108,Paris 8e Arrondissement,75,,,75108000CF0008,,,46,,,,,,,,,,1,2.0,Appartement,14.0,1.0,,,,,,2.318392,48.881321
305,2019-1503510,2019-05-23,1,Vente,496500.0,48.0,,RUE DES FRANCS BOURGEOIS,3820,75003.0,75103,Paris 3e Arrondissement,75,,,75103000AP0041,,,4,38.9,,,,,,,,,1,2.0,Appartement,38.0,2.0,,,,,,2.358631,48.859078
306,2019-1503511,2019-05-13,1,Vente,280000.0,16.0,,RUE ELZEVIR,3196,75003.0,75103,Paris 3e Arrondissement,75,,,75103000AO0037,,,7,,,,,,,,,,1,2.0,Appartement,22.0,1.0,,,,,,2.362283,48.858767
307,2019-1503521,2019-05-21,1,Vente,185000.0,25.0,,RUE JEAN JACQUES ROUSSEAU,4901,75001.0,75101,Paris 1er Arrondissement,75,,,75101000AS0005,,,26,16.98,,,,,,,,,1,2.0,Appartement,17.0,2.0,,,,,,2.340887,48.862894
308,2019-1503525,2019-05-20,1,Vente,1142700.0,25.0,,RUE D AMSTERDAM,0300,75008.0,75108,Paris 8e Arrondissement,75,,,75108000BY0025,,,7,108.01,,,,,,,,,1,2.0,Appartement,102.0,5.0,,,,,,2.326696,48.87821
309,2019-1503527,2019-05-28,1,Vente,550000.0,29.0,,BD SAINT MARTIN,8692,75003.0,75103,Paris 3e Arrondissement,75,,,75103000AB0027,,,38,41.28,,,,,,,,,1,2.0,Appartement,49.0,2.0,,,,,,2.358729,48.868201
310,2019-1503532,2019-05-28,1,Vente,191000.0,43.0,,RUE DES GRAVILLIERS,4302,75003.0,75103,Paris 3e Arrondissement,75,,,75103000AS0002,,,28,15.1,,,,,,,,,1,2.0,Appartement,16.0,1.0,,,,,,2.355412,48.864047
311,2019-1503537,2019-05-23,1,Vente,11750.0,53.0,,RUE FRANCOIS 1ER,3814,75008.0,75108,Paris 8e Arrondissement,75,,,75108000AP0020,,,245,4.7,,,,,,,,,1,2.0,Appartement,75.0,2.0,,,,,,2.301629,48.869515
312,2019-1503539,2019-06-03,1,Vente,8750.0,53.0,,RUE FRANCOIS 1ER,3814,75008.0,75108,Paris 8e Arrondissement,75,,,75108000AP0020,,,246,3.5,,,,,,,,,1,2.0,Appartement,78.0,2.0,,,,,,2.301629,48.869515
313,2019-1503540,2019-06-03,1,Vente,6250.0,53.0,,RUE FRANCOIS 1ER,3814,75008.0,75108,Paris 8e Arrondissement,75,,,75108000AP0020,,,239,2.5,,,,,,,,,1,2.0,Appartement,60.0,2.0,,,,,,2.301629,48.869515
314,2019-1503541,2019-06-03,1,Vente,8750.0,53.0,,RUE FRANCOIS 1ER,3814,75008.0,75108,Paris 8e Arrondissement,75,,,75108000AP0020,,,252,3.5,,,,,,,,,1,2.0,Appartement,78.0,2.0,,,,,,2.301629,48.869515
315,2019-1503545,2019-05-21,1,Vente,920000.0,157.0,,RUE DU FAUBOURG SAINT HONORE,3518,75008.0,75108,Paris 8e Arrondissement,75,,,75108000BD0013,,,64,,,,,,,,,,1,2.0,Appartement,79.0,3.0,,,,,,2.306373,48.874189
316,2019-1503549,2019-05-29,1,Vente,540000.0,6.0,,RUE DU FOREZ,3735,75003.0,75103,Paris 3e Arrondissement,75,,,75103000AH0012,,,4,47.35,,,,,,,,,1,2.0,Appartement,48.0,2.0,,,,,,2.363204,48.863713
317,2019-1503554,2019-05-23,1,Vente,232500.0,25.0,,RUE DES VERTUS,9715,75003.0,75103,Paris 3e Arrondissement,75,,,75103000AE0126,,,17,24.26,,,,,,,,,1,2.0,Appartement,25.0,1.0,,,,,,2.358028,48.864801
318,2019-1503555,2019-05-14,1,Vente,1.0,23.0,,RUE PASQUIER,7082,75008.0,75108,Paris 8e Arrondissement,75,,,75108000BS0018,,,48,,,,,,,,,,1,2.0,Appartement,42.0,2.0,,,,,,2.323309,48.87275
319,2019-1503560,2019-05-22,1,Vente,3.0,102.0,,RUE DE TURENNE,9506,75003.0,75103,Paris 3e Arrondissement,75,,,75103000AJ0027,,,31,,,,,,,,,,1,2.0,Appartement,11.0,1.0,,,,,,2.364886,48.862561
320,2019-1503573,2019-05-14,1,Vente,1.0,23.0,,RUE PASQUIER,7082,75008.0,75108,Paris 8e Arrondissement,75,,,75108000BS0018,,,47,,,,,,,,,,1,2.0,Appartement,81.0,5.0,,,,,,2.323309,48.87275
321,2019-1503580,2019-05-16,1,Vente,1.0,23.0,,RUE PASQUIER,7082,75008.0,75108,Paris 8e Arrondissement,75,,,75108000BS0018,,,51,,,,,,,,,,1,2.0,Appartement,27.0,1.0,,,,,,2.323309,48.87275
322,2019-1503590,2019-06-04,1,Vente,239000.0,132.0,,RUE DE TURENNE,9506,75003.0,75103,Paris 3e Arrondissement,75,,,75103000AH0043,,,20,,,,,,,,,,1,2.0,Appartement,15.0,1.0,,,,,,2.365064,48.864411
323,2019-1503602,2019-05-31,1,Vente,57000.0,21.0,,RUE DE TURIN,9510,75008.0,75108,Paris 8e Arrondissement,75,,,75108000CD0012,,,56,5.95,,,,,,,,,1,2.0,Appartement,7.0,1.0,,,,,,2.324271,48.881656
324,2019-1503604,2019-05-24,1,Vente,560000.0,123.0,,RUE VIEILLE DU TEMPLE,9783,75003.0,75103,Paris 3e Arrondissement,75,,,75103000AQ0077,,,35,51.94,,,,,,,,,1,2.0,Appartement,35.0,2.0,,,,,,2.362934,48.861322
325,2019-1503605,2019-06-17,1,Vente,340000.0,15.0,,RUE DU LOUVRE,5825,75001.0,75101,Paris 1er Arrondissement,75,,,75101000AR0068,,,109,36.3,,,,,,,,,1,2.0,Appartement,36.0,1.0,,,,,,2.341748,48.863545
326,2019-1503607,2019-06-13,1,Vente,1131480.0,3.0,,RUE ROBERT ESTIENNE,8256,75008.0,75108,Paris 8e Arrondissement,75,,,75108000AQ0009,,,17,,,,,,,,,,1,2.0,Appartement,93.0,3.0,,,,,,2.305181,48.868965
327,2019-1503608,2019-06-13,1,Vente,230000.0,65.0,,RUE NOTRE DAME DE NAZARETH,6834,75003.0,75103,Paris 3e Arrondissement,75,,,75103000AB0095,,,4,17.56,,,,,,,,,1,2.0,Appartement,17.0,1.0,,,,,,2.355484,48.86772
328,2019-1503609,2019-06-06,1,Vente,1881400.0,38.0,,RUE FRANCOIS 1ER,3814,75008.0,75108,Paris 8e Arrondissement,75,,,75108000AQ0018,,,16,,,,,,,,,,1,2.0,Appartement,90.0,2.0,,,,,,2.304819,48.868369
329,2019-1503617,2019-06-17,1,Vente,346750.0,10.0,,RUE SAINTE ANASTASE,8531,75003.0,75103,Paris 3e Arrondissement,75,,,75103000AL0106,,,19,27.92,,,,,,,,,1,2.0,Appartement,29.0,0.0,,,,,,2.363852,48.859858
330,2019-1503618,2019-05-23,1,Vente,240000.0,4.0,,RUE CHRISTOPHE COLOMB,2031,75008.0,75108,Paris 8e Arrondissement,75,,,75108000AS0032,,,24,17.9,,,,,,,,,1,2.0,Appartement,20.0,1.0,,,,,,2.300318,48.870111
331,2019-1503626,2019-05-27,1,Vente,140000.0,7.0,,RUE DE MONCEAU,6419,75008.0,75108,Paris 8e Arrondissement,75,,,75108000BC0024,,,137,10.07,,,,,,,,,1,2.0,Appartement,10.0,1.0,,,,,,2.30612,48.875493
332,2019-1503629,2019-05-24,1,Vente,820000.0,24.0,,RUE DE TURIN,9510,75008.0,75108,Paris 8e Arrondissement,75,,,75108000CD0020,,,9,70.77,,,,,,,,,1,2.0,Appartement,65.0,3.0,,,,,,2.324861,48.881554
333,2019-1503631,2019-05-27,1,Vente,1050000.0,70.0,,RUE DE MIROMESNIL,6387,75008.0,75108,Paris 8e Arrondissement,75,,,75108000CI0029,,,31,34.5,,,,,,,,,1,2.0,Appartement,49.0,2.0,,,,,,2.315868,48.876771
334,2019-1503632,2019-05-23,1,Vente,710000.0,43.0,,RUE BOISSY D ANGLAS,1081,75008.0,75108,Paris 8e Arrondissement,75,,,75108000BR0043,,,9,43.75,,,,,,,,,1,2.0,Appartement,22.0,1.0,,,,,,2.322366,48.870234
335,2019-1503636,2019-06-13,1,Vente,405000.0,22.0,,RUE JEAN GOUJON,4897,75008.0,75108,Paris 8e Arrondissement,75,,,75108000AK0012,,,27,23.48,,,,,,,,,1,2.0,Appartement,23.0,1.0,,,,,,2.306396,48.866139
336,2019-1503639,2019-06-06,1,Vente,785000.0,88.0,,RUE QUINCAMPOIX,7970,75003.0,75103,Paris 3e Arrondissement,75,,,75103000AU0041,,,4,60.09,,,,,,,,,1,2.0,Appartement,63.0,3.0,,,,,,2.351468,48.862734
337,2019-1503647,2019-06-03,1,Vente,1461500.0,17.0,,RUE DE SAINT PETERSBOURG,8724,75008.0,75108,Paris 8e Arrondissement,75,,,75108000CD0018,,,9,12.11,,,,,,,,,1,2.0,Appartement,11.0,1.0,,,,,,2.32498,48.88135
338,2019-1503648,2019-06-03,1,Vente,4100000.0,8.0,,AV MONTAIGNE,6450,75008.0,75108,Paris 8e Arrondissement,75,,,75108000AK0045,,,614,100.2,,,,,,,,,1,2.0,Appartement,110.0,2.0,,,,,,2.304497,48.865627
339,2019-1503657,2019-06-06,1,Vente,245000.0,34.0,,RUE DE PONTHIEU,7612,75008.0,75108,Paris 8e Arrondissement,75,,,75108000BI0009,,,25,22.64,,,,,,,,,1,2.0,Appartement,44.0,1.0,,,,,,2.308471,48.871218
340,2019-1503658,2019-06-18,1,Vente,497500.0,19.0,,RUE MONTMARTRE,6513,75001.0,75101,Paris 1er Arrondissement,75,,,75101000AR0078,,,8,39.59,,,,,,,,,1,2.0,Appartement,40.0,2.0,,,,,,2.344894,48.864501
341,2019-1503667,2019-06-21,1,Vente,283208.0,44.0,,RUE PASTOURELLE,7094,75003.0,75103,Paris 3e Arrondissement,75,,,75103000AI0043,,,21,17.1,,,,,,,,,1,2.0,Appartement,17.0,2.0,,,,,,2.358714,48.863313
342,2019-1503673,2019-05-29,1,Vente,202800.0,110.0,,BD DE SEBASTOPOL,8894,75003.0,75103,Paris 3e Arrondissement,75,,,75103000AB0121,,,4,16.03,,,,,,,,,1,2.0,Appartement,16.0,1.0,,,,,,2.354155,48.86848
343,2019-1503674,2019-06-11,1,Vente,9000.0,53.0,,RUE FRANCOIS 1ER,3814,75008.0,75108,Paris 8e Arrondissement,75,,,75108000AP0020,,,256,,,,,,,,,,1,2.0,Appartement,77.0,3.0,,,,,,2.301629,48.869515
344,2019-1503677,2019-06-07,1,Vente,420000.0,9.0,,RUE BARBETTE,0666,75003.0,75103,Paris 3e Arrondissement,75,,,75103000AO0014,,,18,,,,,,,,,,1,2.0,Appartement,28.0,2.0,,,,,,2.360785,48.858682
345,2019-1503694,2019-06-20,1,Vente,447000.0,33.0,,RUE CHARLOT,1880,75003.0,75103,Paris 3e Arrondissement,75,,,75103000AI0081,,,111,33.52,,,,,,,,,1,2.0,Appartement,34.0,2.0,,,,,,2.361699,48.862637
346,2019-1503697,2019-06-06,1,Vente,645000.0,7.0,,RUE DES HALLES,4461,75001.0,75101,Paris 1er Arrondissement,75,,,75101000AO0036,,,41,,,,,,,,,,1,2.0,Appartement,57.0,3.0,,,,,,2.346881,48.859251
347,2019-1503698,2019-06-21,1,Vente,300000.0,50.0,,RUE CHARLOT,1880,75003.0,75103,Paris 3e Arrondissement,75,,,75103000AH0061,,,213,24.88,,,,,,,,,1,2.0,Appartement,24.0,1.0,,,,,,2.363042,48.863035
348,2019-1503702,2019-05-28,1,Vente,510000.0,119.0,,RUE SAINT DENIS,8525,75001.0,75101,Paris 1er Arrondissement,75,,,75101000AQ0095,,,64,45.03,,,,,,,,,1,2.0,Appartement,47.0,2.0,,,,,,2.349162,48.863042
349,2019-1503709,2019-06-25,1,Vente,7220.0,10.0,,RUE JEAN JACQUES ROUSSEAU,4901,75001.0,75101,Paris 1er Arrondissement,75,,,75101000AS0038,,,24,,,,,,,,,,1,2.0,Appartement,22.0,1.0,,,,,,2.3403,48.862283
350,2019-1503717,2019-06-25,1,Vente,450000.0,40.0,,RUE SAINT HONORE,8635,75001.0,75101,Paris 1er Arrondissement,75,,,75101000AT0159,,,16,34.13,,,,,,,,,1,2.0,Appartement,40.0,2.0,,,,,,2.34454,48.86124
351,2019-1503721,2019-06-21,1,Vente,511200.0,46.0,,RUE DE MOSCOU,6573,75008.0,75108,Paris 8e Arrondissement,75,,,75108000CE0070,,,21,41.6,,,,,,,,,1,2.0,Appartement,39.0,2.0,,,,,,2.322877,48.881967
352,2019-1503726,2019-06-18,1,Vente,678300.0,19.0,,PL DU MARCHE ST HONORE,6033,75001.0,75101,Paris 1er Arrondissement,75,,,75101000AZ0030,,,5,35.55,,,,,,,,,1,2.0,Appartement,35.0,1.0,,,,,,2.330927,48.866588
353,2019-1503728,2019-06-27,1,Vente,500.0,23.0,,RUE MOLIERE,6407,75001.0,75101,Paris 1er Arrondissement,75,,,75101000AW0060,,,111,,,,,,,,,,1,2.0,Appartement,40.0,2.0,,,,,,2.336108,48.865638
354,2019-1503729,2019-06-26,1,Vente,586500.0,23.0,,BD DES BATIGNOLLES,0719,75008.0,75108,Paris 8e Arrondissement,75,,,75108000CD0045,,,59,49.43,,,,,,,,,1,2.0,Appartement,53.0,2.0,,,,,,2.324827,48.882558
355,2019-1503733,2019-06-28,1,Vente,93500.0,259.0,,RUE SAINT MARTIN,8694,75003.0,75103,Paris 3e Arrondissement,75,,,75103000AD0009,,,14,,,,,,,,,,1,2.0,Appartement,26.0,2.0,,,,,,2.353902,48.86663
356,2019-1503734,2019-06-28,1,Vente,180000.0,43.0,,RUE DE BRETAGNE,1275,75003.0,75103,Paris 3e Arrondissement,75,,,75103000AI0077,,,18,14.58,,,,,,,,,1,2.0,Appartement,16.0,1.0,,,,,,2.361706,48.863143
357,2019-1503743,2019-06-26,1,Vente,69000.0,5.0,,RUE PERRAULT,7279,75001.0,75101,Paris 1er Arrondissement,75,,,75101000AK0005,,,36,6.09,,,,,,,,,1,2.0,Appartement,7.0,1.0,,,,,,2.341498,48.860416
358,2019-1503744,2019-06-17,1,Vente,657760.0,14.0,,RUE BARBETTE,0666,75003.0,75103,Paris 3e Arrondissement,75,,,75103000AP0028,,,24,,,,,,,,,,1,2.0,Appartement,61.0,2.0,,,,,,2.36061,48.859121
359,2019-1503747,2019-06-27,1,Vente,705000.0,280.0,,RUE SAINT HONORE,8635,75001.0,75101,Paris 1er Arrondissement,75,,,75101000AX0015,,,91,48.62,,,,,,,,,1,2.0,Appartement,47.0,1.0,,,,,,2.333196,48.864625
360,2019-1503748,2019-07-03,1,Vente,315000.0,72.0,,RUE DU TEMPLE,9191,75003.0,75103,Paris 3e Arrondissement,75,,,75103000AT0046,,,25,30.39,,,,,,,,,1,2.0,Appartement,195.0,2.0,,,,,,2.356539,48.861345
361,2019-1503751,2019-06-28,1,Vente,1800000.0,48.0,,RUE DE LA BIENFAISANCE,0960,75008.0,75108,Paris 8e Arrondissement,75,,,75108000CI0117,,,110,198.5,,,,,,,,,1,2.0,Appartement,190.0,5.0,,,,,,2.314472,48.876844
362,2019-1503765,2019-06-28,1,Vente,253000.0,1.0,,SQ DU ROULE,8398,75008.0,75108,Paris 8e Arrondissement,75,,,75108000AX0113,,,22,26.18,,,,,,,,,1,2.0,Appartement,88.0,2.0,,,,,,2.299629,48.876786
363,2019-1503769,2019-06-19,1,Vente,378180.0,7.0,,RUE DU LOUVRE,5825,75001.0,75101,Paris 1er Arrondissement,75,,,75101000AS0051,,,11,,,,,,,,,,1,2.0,Appartement,43.0,2.0,,,,,,2.341117,48.86223
364,2019-1503770,2019-06-13,1,Vente,182000.0,8.0,,AV VELASQUEZ,9643,75008.0,75108,Paris 8e Arrondissement,75,,,75108000CG0002,,,1,11.6,,,,,,,,,1,2.0,Appartement,9.0,1.0,,,,,,2.312006,48.879942
365,2019-1503771,2019-07-02,1,Vente,230000.0,123.0,,RUE SAINT HONORE,8635,75001.0,75101,Paris 1er Arrondissement,75,,,75101000AT0169,,,217,15.8,,,,,,,,,1,2.0,Appartement,16.0,1.0,,,,,,2.341817,48.861395
366,2019-1503772,2019-06-26,1,Vente,120000.0,15.0,,RUE DE MARIGNAN,6086,75008.0,75108,Paris 8e Arrondissement,75,,,75108000AQ0032,,,35,7.7,,,,,,,,,1,2.0,Appartement,57.0,2.0,,,,,,2.305822,48.868484
367,2019-1503776,2019-06-18,1,Vente,2000.0,18.0,,RUE DU PONT AUX CHOUX,7605,75003.0,75103,Paris 3e Arrondissement,75,,,75103000AK0045,,,27,,,,,,,,,,1,2.0,Appartement,15.0,1.0,,,,,,2.365189,48.861322
368,2019-1503778,2019-06-24,1,Vente,3000.0,62.0,,RUE CHAPON,1771,75003.0,75103,Paris 3e Arrondissement,75,,,75103000AV0054,,,39,,,,,,,,,,1,2.0,Appartement,69.0,3.0,,,,,,2.353517,48.864291
369,2019-1503779,2019-06-07,1,Vente,144000.0,51.0,,RUE SAINT DENIS,8525,75001.0,75101,Paris 1er Arrondissement,75,,,75101000AP0066,,,6,31.35,,,,,,,,,1,2.0,Appartement,32.0,1.0,,,,,,2.348321,48.861161
370,2019-1503780,2019-06-27,1,Vente,235000.0,44.0,,RUE DE LABORDE,5200,75008.0,75108,Paris 8e Arrondissement,75,,,75108000CI0071,,,126,18.05,,,,,,,,,1,2.0,Appartement,17.0,1.0,,,,,,2.316697,48.875833
371,2019-1503781,2019-06-21,1,Vente,235000.0,40.0,,RUE NOTRE DAME DE NAZARETH,6834,75003.0,75103,Paris 3e Arrondissement,75,,,75103000AB0067,,,48,22.25,,,,,,,,,1,2.0,Appartement,23.0,1.0,,,,,,2.358455,48.867684
372,2019-1503782,2019-06-25,1,Vente,215000.0,9.0,,RUE BAYARD,0746,75008.0,75108,Paris 8e Arrondissement,75,,,75108000AK0021,,,28,23.49,,,,,,,,,1,2.0,Appartement,23.0,1.0,,,,,,2.307482,48.865696
373,2019-1503785,2019-06-11,1,Vente,320000.0,55.0,,RUE NOTRE DAME DE NAZARETH,6834,75003.0,75103,Paris 3e Arrondissement,75,,,75103000AB0088,,,109,28.86,,,,,,,,,1,2.0,Appartement,29.0,1.0,,,,,,2.356315,48.867544
374,2019-1503789,2019-07-01,1,Vente,4055789.0,8.0,,RUE DE MARIGNAN,6086,75008.0,75108,Paris 8e Arrondissement,75,,,75108000AQ0063,,,108,199.79,,,,,,,,,1,2.0,Appartement,35.0,2.0,,,,,,2.306682,48.868093
375,2019-1503792,2019-06-18,1,Vente,4959.32,78.0,,RUE DE TURENNE,9506,75003.0,75103,Paris 3e Arrondissement,75,,,75103000AL0068,,,26,40.0,,,,,,,,,1,2.0,Appartement,44.0,3.0,,,,,,2.364926,48.860571
376,2019-1503794,2019-06-26,1,Vente,90000.0,4.0,,RUE DE SAINT PETERSBOURG,8724,75008.0,75108,Paris 8e Arrondissement,75,,,75108000BZ0065,,,405,14.33,,,,,,,,,1,2.0,Appartement,14.0,1.0,,,,,,2.324251,48.87945
377,2019-1503796,2019-07-05,1,Vente,615000.0,18.0,,RUE VOLTA,9905,75003.0,75103,Paris 3e Arrondissement,75,,,75103000AE0138,,,6,50.02,,,,,,,,,1,2.0,Appartement,51.0,2.0,,,,,,2.357217,48.864976
378,2019-1503797,2019-07-04,1,Vente,185000.0,22.0,,RUE DE LISBONNE,5708,75008.0,75108,Paris 8e Arrondissement,75,,,75108000CH0013,,,1,20.0,,,,,,,,,1,2.0,Appartement,21.0,1.0,,,,,,2.314489,48.877872
379,2019-1503803,2019-06-18,1,Vente,392523.0,26.0,,AV DE WAGRAM,9933,75008.0,75108,Paris 8e Arrondissement,75,,,75108000AX0066,,,353,33.49,,,,,,,,,1,2.0,Appartement,36.0,1.0,,,,,,2.297517,48.876403
380,2019-1503809,2019-05-21,1,Vente,732500.0,21.0,,AV HOCHE,4645,75008.0,75108,Paris 8e Arrondissement,75,,,75108000BC0003,,,11,58.93,,,,,,,,,1,2.0,Appartement,68.0,2.0,,,,,,2.302711,48.876549
381,2019-1503813,2019-07-05,1,Vente,570000.0,11.0,,RUE PORTEFOIN,7729,75003.0,75103,Paris 3e Arrondissement,75,,,75103000AI0028,,,105,64.74,,,,,,,,,1,2.0,Appartement,69.0,3.0,,,,,,2.35952,48.863538
382,2019-1503820,2019-06-26,1,Vente,205000.0,16.0,,RUE PASTOURELLE,7094,75003.0,75103,Paris 3e Arrondissement,75,,,75103000AI0059,,,5,20.2,,,,,,,,,1,2.0,Appartement,27.0,1.0,,,,,,2.359691,48.862757
383,2019-1503822,2019-07-03,1,Vente,361500.0,56.0,,RUE CHAPON,1771,75003.0,75103,Paris 3e Arrondissement,75,,,75103000AV0028,,,522,26.12,,,,,,,,,1,2.0,Appartement,27.0,2.0,,,,,,2.353785,48.864262
384,2019-1503825,2019-06-21,1,Vente,430000.0,2.0,,RUE JOSEPH SANSBOEUF,5020,75008.0,75108,Paris 8e Arrondissement,75,,,75108000BW0028,,,225,38.25,,,,,,,,,1,2.0,Appartement,64.0,3.0,,,,,,2.323079,48.87544
385,2019-1503828,2019-07-03,1,Vente,1065000.0,187.0,,RUE DU TEMPLE,9191,75003.0,75103,Paris 3e Arrondissement,75,,,75103000AF0117,,,133,94.4,,,,,,,,,1,2.0,Appartement,178.0,6.0,,,,,,2.359943,48.865751
386,2019-1503835,2019-07-09,1,Vente,5000.0,23.0,B,RUE DE CONSTANTINOPLE,2289,75008.0,75108,Paris 8e Arrondissement,75,,,75108000CF0098,,,151,,,,,,,,,,1,2.0,Appartement,145.0,5.0,,,,,,2.319242,48.880083
387,2019-1503844,2019-07-04,1,Vente,2567829.0,38.0,,RUE FRANCOIS 1ER,3814,75008.0,75108,Paris 8e Arrondissement,75,,,75108000AQ0018,,,7,166.4,,,,,,,,,1,2.0,Appartement,170.0,6.0,,,,,,2.304819,48.868369
388,2019-1503850,2019-06-25,1,Vente,872400.0,206.0,,RUE SAINT MARTIN,8694,75003.0,75103,Paris 3e Arrondissement,75,,,75103000AV0116,,,11,67.13,,,,,,,,,1,2.0,Appartement,80.0,3.0,,,,,,2.35284,48.863373
389,2019-1503854,2019-06-24,1,Vente,431347.0,46.0,,RUE DES FRANCS BOURGEOIS,3820,75003.0,75103,Paris 3e Arrondissement,75,,,75103000AP0078,,,20,31.25,,,,,,,,,1,2.0,Appartement,32.0,1.0,,,,,,2.358877,48.858882
390,2019-1503870,2019-06-28,1,Vente,885000.0,78.0,,RUE DES ARCHIVES,0420,75003.0,75103,Paris 3e Arrondissement,75,,,75103000AI0062,,,32,54.03,,,,,,,,,1,2.0,Appartement,83.0,2.0,,,,,,2.360113,48.862674
391,2019-1503872,2019-07-01,1,Vente,990000.0,57.0,,RUE CHARLOT,1880,75003.0,75103,Paris 3e Arrondissement,75,,,75103000AH0075,,,12,,,,,,,,,,1,2.0,Appartement,71.0,2.0,,,,,,2.362937,48.863572
392,2019-1503876,2019-07-01,2,Vente,1445000.0,74.0,,RUE DES ARCHIVES,0420,75003.0,75103,Paris 3e Arrondissement,75,,,75103000AQ0003,,,38,106.64,,,,,,,,,1,2.0,Appartement,102.0,2.0,,,,,,2.359729,48.862323
393,2019-1503877,2019-06-26,1,Vente,760950.0,10.0,,RUE SAINTE ANASTASE,8531,75003.0,75103,Paris 3e Arrondissement,75,,,75103000AL0106,,,18,55.1,,,,,,,,,1,2.0,Appartement,51.0,2.0,,,,,,2.363852,48.859858
394,2019-1503878,2019-06-29,1,Vente,150000.0,73.0,,RUE SAINT HONORE,8635,75001.0,75101,Paris 1er Arrondissement,75,,,75101000AT0083,,,52,19.12,,,,,,,,,1,2.0,Appartement,31.0,1.0,,,,,,2.344146,48.860863
395,2019-1503879,2019-06-19,1,Vente,188513.52,53.0,,RUE MESLAY,6286,75003.0,75103,Paris 3e Arrondissement,75,,,75103000AB0035,,,34,19.28,,,,,,,,,1,2.0,Appartement,18.0,1.0,,,,,,2.35742,48.86789
396,2019-1503880,2019-07-10,1,Vente,241050.0,23.0,,RUE DES FONTAINES DU TEMPLE,3723,75003.0,75103,Paris 3e Arrondissement,75,,,75103000AE0011,,,8,21.7,,,,,,,,,1,2.0,Appartement,25.0,1.0,,,,,,2.358054,48.865649
397,2019-1503885,2019-07-11,1,Vente,145000.0,39.0,,RUE DES GRAVILLIERS,4302,75003.0,75103,Paris 3e Arrondissement,75,,,75103000AS0004,,,33,13.73,,,,,,,,,1,2.0,Appartement,14.0,1.0,,,,,,2.355544,48.863993
398,2019-1503889,2019-07-03,1,Vente,367000.0,20.0,,RUE CROIX DES PETITS CHAMPS,2453,75001.0,75101,Paris 1er Arrondissement,75,,,75101000AR0058,,,89,30.7,,,,,,,,,1,2.0,Appartement,37.0,1.0,,,,,,2.340328,48.863699
399,2019-1503891,2019-06-19,1,Vente,487000.0,9.0,,RUE AUX OURS,6983,75003.0,75103,Paris 3e Arrondissement,75,,,75103000AU0034,,,4,38.01,,,,,,,,,1,2.0,Appartement,37.0,2.0,,,,,,2.351847,48.862956
400,2019-1503894,2019-06-19,1,Vente,3500.0,53.0,,RUE FRANCOIS 1ER,3814,75008.0,75108,Paris 8e Arrondissement,75,,,75108000AP0020,,,260,1.4,,,,,,,,,1,2.0,Appartement,134.0,5.0,,,,,,2.301629,48.869515
401,2019-1503895,2019-06-28,1,Vente,17250.0,53.0,,RUE FRANCOIS 1ER,3814,75008.0,75108,Paris 8e Arrondissement,75,,,75108000AP0020,,,235,6.9,,,,,,,,,1,2.0,Appartement,77.0,3.0,,,,,,2.301629,48.869515
402,2019-1503896,2019-06-28,1,Vente,5500.0,53.0,,RUE FRANCOIS 1ER,3814,75008.0,75108,Paris 8e Arrondissement,75,,,75108000AP0020,,,236,2.2,,,,,,,,,1,2.0,Appartement,62.0,2.0,,,,,,2.301629,48.869515
403,2019-1503903,2019-07-03,1,Vente,615000.0,9.0,,CITE DUPETIT THOUARS,2996,75003.0,75103,Paris 3e Arrondissement,75,,,75103000AG0066,,,91,,,,,,,,,,1,2.0,Appartement,48.0,2.0,,,,,,2.362364,48.866186
404,2019-1503904,2019-07-09,1,Vente,870000.0,243.0,,RUE SAINT HONORE,8635,75001.0,75101,Paris 1er Arrondissement,75,,,75101000BD0063,,,5,51.04,,,,,,,,,1,2.0,Appartement,51.0,1.0,,,,,,2.327544,48.866808
405,2019-1503912,2019-07-17,1,Vente,810000.0,5.0,,RUE DE VIENNE,9785,75008.0,75108,Paris 8e Arrondissement,75,,,75108000BW0007,,,35,63.06,,,,,,,,,1,2.0,Appartement,63.0,2.0,,,,,,2.321206,48.876667
406,2019-1503920,2019-07-01,1,Vente,387950.0,44.0,,RUE DES LOMBARDS,5738,75001.0,75101,Paris 1er Arrondissement,75,,,75101000AO0028,,,3,30.29,,,,,,,,,1,2.0,Appartement,31.0,1.0,,,,,,2.348505,48.859721
407,2019-1503923,2019-07-08,1,Vente,120000.0,26.0,,RUE MONTMARTRE,6513,75001.0,75101,Paris 1er Arrondissement,75,,,75101000AQ0007,,,21,,,,,,,,,,1,2.0,Appartement,22.0,2.0,,,,,,2.345875,48.864218
408,2019-1503924,2019-06-28,1,Vente,7750.0,53.0,,RUE FRANCOIS 1ER,3814,75008.0,75108,Paris 8e Arrondissement,75,,,75108000AP0020,,,259,3.1,,,,,,,,,1,2.0,Appartement,72.0,2.0,,,,,,2.301629,48.869515
409,2019-1503926,2019-07-02,1,Vente,17750.0,53.0,,RUE FRANCOIS 1ER,3814,75008.0,75108,Paris 8e Arrondissement,75,,,75108000AP0020,,,240,7.1,,,,,,,,,1,2.0,Appartement,56.0,2.0,,,,,,2.301629,48.869515
410,2019-1503927,2019-06-27,1,Vente,363000.0,130.0,,RUE DU TEMPLE,9191,75003.0,75103,Paris 3e Arrondissement,75,,,75103000AI0040,,,14,27.55,,,,,,,,,1,2.0,Appartement,33.0,2.0,,,,,,2.358529,48.86341
411,2019-1503931,2019-07-11,1,Vente,510000.0,6.0,,RUE ROBERT ESTIENNE,8256,75008.0,75108,Paris 8e Arrondissement,75,,,75108000AQ0012,,,23,40.76,,,,,,,,,1,2.0,Appartement,44.0,2.0,,,,,,2.304843,48.868577
412,2019-1503935,2019-07-10,1,Vente,220000.0,29.0,,RUE SAINT DENIS,8525,75001.0,75101,Paris 1er Arrondissement,75,,,75101000AO0064,,,10,18.67,,,,,,,,,1,2.0,Appartement,20.0,1.0,,,,,,2.34793,48.859905
413,2019-1503936,2019-07-17,1,Vente,217370.0,23.0,,RUE DES FONTAINES DU TEMPLE,3723,75003.0,75103,Paris 3e Arrondissement,75,,,75103000AE0011,,,18,,,,,,,,,,1,2.0,Appartement,17.0,1.0,,,,,,2.358054,48.865649
414,2019-1503939,2019-06-20,1,Vente,2400000.0,88.0,,BD MALESHERBES,5951,75008.0,75108,Paris 8e Arrondissement,75,,,75108000CG0107,,,106,197.4,,,,,,,,,1,2.0,Appartement,195.0,5.0,,,,,,2.313718,48.880418
415,2019-1503951,2019-07-16,1,Vente,135000.0,23.0,,RUE DES LAVANDIERES STE OPPORT,5409,75001.0,75101,Paris 1er Arrondissement,75,,,75101000AO0105,,,13,10.99,,,,,,,,,1,2.0,Appartement,13.0,1.0,,,,,,2.346377,48.859357
416,2019-1503952,2019-07-12,1,Vente,137000.0,17.0,,BD SAINT MARTIN,8692,75003.0,75103,Paris 3e Arrondissement,75,,,75103000AF0008,,,49,12.16,,,,,,,,,1,2.0,Appartement,18.0,2.0,,,,,,2.360036,48.867935
417,2019-1503953,2019-07-12,2,Vente,120000.0,17.0,,BD SAINT MARTIN,8692,75003.0,75103,Paris 3e Arrondissement,75,,,75103000AF0008,,,52,14.0,,,,,,,,,1,2.0,Appartement,18.0,0.0,,,,,,2.360036,48.867935
418,2019-1503958,2019-06-27,1,Vente,509000.0,65.0,,RUE DE BRETAGNE,1275,75003.0,75103,Paris 3e Arrondissement,75,,,75103000AI0011,,,25,42.57,,,,,,,,,1,2.0,Appartement,42.0,1.0,,,,,,2.359963,48.864211
419,2019-1503960,2019-07-16,1,Vente,155000.0,30.0,,RUE CAMBACERES,1443,75008.0,75108,Paris 8e Arrondissement,75,,,75108000BL0036,,,50,16.18,,,,,,,,,1,2.0,Appartement,36.0,1.0,,,,,,2.317822,48.874085
420,2019-1503967,2019-07-18,1,Vente,205000.0,39.0,,RUE VOLTA,9905,75003.0,75103,Paris 3e Arrondissement,75,,,75103000AC0011,,,9,15.04,,,,,,,,,1,2.0,Appartement,15.0,1.0,,,,,,2.357717,48.866486
421,2019-1503972,2019-07-04,1,Vente,398020.0,19.0,,BD DES BATIGNOLLES,0719,75008.0,75108,Paris 8e Arrondissement,75,,,75108000CD0047,,,13,30.33,,,,,,,,,1,2.0,Appartement,28.0,2.0,,,,,,2.325299,48.882661
422,2019-1503993,2019-06-25,1,Vente,4000.0,20.0,,RUE DU GRENIER SAINT LAZARE,4320,75003.0,75103,Paris 3e Arrondissement,75,,,75103000AV0109,,,16,,,,,,,,,,1,2.0,Appartement,33.0,2.0,,,,,,2.35349,48.863133
423,2019-1503996,2019-07-16,1,Vente,450000.0,4.0,,RUE DE THORIGNY,9298,75003.0,75103,Paris 3e Arrondissement,75,,,75103000AM0007,,,25,33.04,,,,,,,,,1,2.0,Appartement,36.0,1.0,,,,,,2.362587,48.859303
424,2019-1503997,2019-07-17,1,Vente,795000.0,15.0,,RUE DEBELLEYME,2616,75003.0,75103,Paris 3e Arrondissement,75,,,75103000AK0085,,,8,56.81,,,,,,,,,1,2.0,Appartement,22.0,2.0,,,,,,2.363117,48.861707
425,2019-1504000,2019-07-05,1,Vente,2025000.0,40.0,,RUE FRANCOIS 1ER,3814,75008.0,75108,Paris 8e Arrondissement,75,,,75108000AQ0017,,,66,,,,,,,,,,1,2.0,Appartement,9.0,1.0,,,,,,2.304576,48.868481
426,2019-1504008,2019-07-17,1,Vente,234000.0,14.0,,RUE DES PRECHEURS,7794,75001.0,75101,Paris 1er Arrondissement,75,,,75101000AP0046,,,2,17.97,,,,,,,,,1,2.0,Appartement,18.0,1.0,,,,,,2.3487,48.862131
427,2019-1504010,2019-07-17,1,Vente,700000.0,72.0,,BD DE SEBASTOPOL,8894,75003.0,75103,Paris 3e Arrondissement,75,,,75103000AD0061,,,39,,,,,,,,,,1,2.0,Appartement,65.0,2.0,,,,,,2.35198,48.864686
428,2019-1504011,2019-07-17,1,Vente,50000.0,227.0,,RUE SAINT MARTIN,8694,75003.0,75103,Paris 3e Arrondissement,75,,,75103000AV0018,,,16,,,,,,,,,,1,2.0,Appartement,59.0,4.0,,,,,,2.352716,48.864473
429,2019-1504016,2019-07-24,1,Vente,560000.0,164.0,,RUE DU FAUBOURG SAINT HONORE,3518,75008.0,75108,Paris 8e Arrondissement,75,,,75108000BE0017,,,201,109.11,,,,,,,,,1,2.0,Appartement,105.0,4.0,,,,,,2.309351,48.873827
430,2019-1504020,2019-07-25,1,Vente,2000000.0,51.0,,AV MONTAIGNE,6450,75008.0,75108,Paris 8e Arrondissement,75,,,75108000AQ0058,,,21,123.51,,,,,,,,,1,2.0,Appartement,226.0,6.0,,,,,,2.307406,48.868413
431,2019-1504031,2019-07-10,1,Vente,250000.0,40.0,,RUE DE MONTMORENCY,6517,75003.0,75103,Paris 3e Arrondissement,75,,,75103000AV0076,,,31,21.25,,,,,,,,,1,2.0,Appartement,20.0,1.0,,,,,,2.353747,48.863688
432,2019-1504038,2019-07-12,1,Vente,1408000.0,19.0,A,RUE DU ROCHER,8291,75008.0,75108,Paris 8e Arrondissement,75,,,75108000BW0055,,,38,111.14,,,,,,,,,1,2.0,Appartement,112.0,4.0,,,,,,2.321851,48.876272
433,2019-1504043,2019-07-04,1,Vente,120000.0,19.0,,AV GEORGE V,4110,75008.0,75108,Paris 8e Arrondissement,75,,,75108000AO0069,,,159,,,,,,,,,,1,2.0,Appartement,275.0,5.0,,,,,,2.300529,48.867145
434,2019-1504045,2019-07-26,1,Vente,1020000.0,7.0,,RUE FROISSART,3875,75003.0,75103,Paris 3e Arrondissement,75,,,75103000AK0037,,,105,85.74,,,,,,,,,1,2.0,Appartement,80.0,3.0,,,,,,2.365965,48.861336
435,2019-1504046,2019-07-15,1,Vente,1500000.0,4.0,,RUE ELZEVIR,3196,75003.0,75103,Paris 3e Arrondissement,75,,,75103000AO0030,,,18,,,,,,,,,,1,2.0,Appartement,150.0,3.0,,,,,,2.361321,48.857893
436,2019-1504052,2019-07-18,1,Vente,1984900.0,32.0,,RUE DE WASHINGTON,9942,75008.0,75108,Paris 8e Arrondissement,75,,,75108000BF0025,,,113,141.59,,,,,,,,,1,2.0,Appartement,140.0,5.0,,,,,,2.304074,48.873481
437,2019-1504065,2019-07-18,1,Vente,71000.0,14.0,,AV DE L OPERA,6904,75001.0,75101,Paris 1er Arrondissement,75,,,75101000AW0090,,,37,17.36,,,,,,,,,1,2.0,Appartement,17.0,1.0,,,,,,2.334881,48.865322
438,2019-1504066,2019-07-12,1,Vente,600000.0,18.0,,RUE DES GRAVILLIERS,4302,75003.0,75103,Paris 3e Arrondissement,75,,,75103000AE0084,,,12,56.25,,,,,,,,,1,2.0,Appartement,57.0,3.0,,,,,,2.357312,48.863969
439,2019-1504069,2019-07-19,1,Vente,2138300.0,17.0,,AV DE FRIEDLAND,3868,75008.0,75108,Paris 8e Arrondissement,75,,,75108000AU0051,,,41,156.06,,,,,,,,,1,2.0,Appartement,160.0,6.0,,,,,,2.302849,48.874246
440,2019-1504077,2019-07-30,1,Vente,318500.0,28.0,,RUE NOTRE DAME DE NAZARETH,6834,75003.0,75103,Paris 3e Arrondissement,75,,,75103000AF0059,,,25,28.27,,,,,,,,,1,2.0,Appartement,30.0,2.0,,,,,,2.359749,48.867463
441,2019-1504078,2019-07-30,1,Vente,394000.0,82.0,,RUE DE TURENNE,9506,75003.0,75103,Paris 3e Arrondissement,75,,,75103000AL0045,,,23,45.11,,,,,,,,,1,2.0,Appartement,44.0,3.0,,,,,,2.364954,48.860947
442,2019-1504083,2019-07-26,1,Vente,350000.0,8.0,,RUE DE LA PETITE TRUANDERIE,7332,75001.0,75101,Paris 1er Arrondissement,75,,,75101000AQ0151,,,12,32.73,,,,,,,,,1,2.0,Appartement,33.0,1.0,,,,,,2.348363,48.862742
443,2019-1504085,2019-07-16,1,Vente,180000.0,1.0,B,RUE JEAN MERMOZ,4921,75008.0,75108,Paris 8e Arrondissement,75,,,75108000BH0046,,,93,23.51,,,,,,,,,1,2.0,Appartement,23.0,1.0,,,,,,2.310473,48.870036
444,2019-1504089,2019-07-09,1,Vente,240000.0,191.0,,RUE DU TEMPLE,9191,75003.0,75103,Paris 3e Arrondissement,75,,,75103000AF0113,,,319,12.5,,,,,,,,,1,2.0,Appartement,13.0,1.0,,,,,,2.360256,48.865933
445,2019-1504091,2019-08-01,1,Vente,262500.0,28.0,,RUE CHAPON,1771,75003.0,75103,Paris 3e Arrondissement,75,,,75103000AS0041,,,9,25.55,,,,,,,,,1,2.0,Appartement,25.0,1.0,,,,,,2.355459,48.863778
446,2019-1504094,2019-07-16,1,Vente,110000.0,25.0,,RUE TRONCHET,9470,75008.0,75108,Paris 8e Arrondissement,75,,,75108000BS0077,,,40,,,,,,,,,,1,2.0,Appartement,8.0,1.0,,,,,,2.325865,48.872635
447,2019-1504097,2019-07-11,1,Vente,150810.0,13.0,,BD DU TEMPLE,9190,75003.0,75103,Paris 3e Arrondissement,75,,,75103000AJ0005,,,16,26.47,,,,,,,,,1,2.0,Appartement,27.0,1.0,,,,,,2.365697,48.863902
448,2019-1504099,2019-08-01,1,Vente,570000.0,81.0,,RUE VIEILLE DU TEMPLE,9783,75003.0,75103,Paris 3e Arrondissement,75,,,75103000AP0036,,,4,44.98,,,,,,,,,1,2.0,Appartement,48.0,2.0,,,,,,2.35925,48.859324
449,2019-1504106,2019-08-06,1,Vente,127000.0,10.0,,RUE DE TURIN,9510,75008.0,75108,Paris 8e Arrondissement,75,,,75108000BZ0043,,,19,8.0,,,,,,,,,1,2.0,Appartement,13.0,1.0,,,,,,2.3255,48.880039
450,2019-1504108,2019-07-26,1,Vente,2653000.0,27.0,,BD DE COURCELLES,2386,75008.0,75108,Paris 8e Arrondissement,75,,,75108000CG0016,,,5,209.6,,,,,,,,,1,2.0,Appartement,209.0,5.0,,,,,,2.314005,48.880648
451,2019-1504122,2019-07-24,1,Vente,765000.0,7.0,,RUE BERNARD DE CLAIRVAUX,0895,75003.0,75103,Paris 3e Arrondissement,75,,,75103000AU0081,,,7013,79.7,,,,,,,,,1,2.0,Appartement,80.0,3.0,,,,,,2.352132,48.861646
452,2019-1504123,2019-05-06,1,Vente,252000.0,2.0,,CITE DUPETIT THOUARS,2996,75003.0,75103,Paris 3e Arrondissement,75,,,75103000AG0073,,,47,,,,,,,,,,1,2.0,Appartement,31.0,2.0,,,,,,2.361888,48.865586
453,2019-1504134,2019-07-17,1,Vente,2690000.0,1.0,B,AV HOCHE,4645,75008.0,75108,Paris 8e Arrondissement,75,,,75108000BC0040,,,142,9.85,,,,,,,,,1,2.0,Appartement,9.0,1.0,,,,,,2.304983,48.877496
454,2019-1504135,2019-07-24,1,Vente,4000.0,70.0,,RUE DE SAINTONGE,8716,75003.0,75103,Paris 3e Arrondissement,75,,,75103000AJ0001,,,27,,,,,,,,,,1,2.0,Appartement,47.0,2.0,,,,,,2.365644,48.864352
455,2019-1504140,2019-07-15,1,Vente,110000.0,8.0,,RUE DE CASTELLANE,1599,75008.0,75108,Paris 8e Arrondissement,75,,,75108000BS0081,,,46,,,,,,,,,,1,2.0,Appartement,131.0,3.0,,,,,,2.325187,48.872523
456,2019-1504144,2019-08-01,1,Vente,900000.0,14.0,,RUE DES FILLES DU CALVAIRE,3643,75003.0,75103,Paris 3e Arrondissement,75,,,75103000AK0005,,,12,49.55,,,,,,,,,1,2.0,Appartement,45.0,2.0,,,,,,2.366161,48.862475
457,2019-1504145,2019-08-01,1,Vente,150000.0,14.0,,RUE DES FILLES DU CALVAIRE,3643,75003.0,75103,Paris 3e Arrondissement,75,,,75103000AK0005,,,8,,,,,,,,,,1,2.0,Appartement,42.0,2.0,,,,,,2.366161,48.862475
458,2019-1504151,2019-08-02,1,Vente,1155559.5,41.0,,RUE MESLAY,6286,75003.0,75103,Paris 3e Arrondissement,75,,,75103000AB0029,,,4,96.33,,,,,,,,,1,2.0,Appartement,99.0,3.0,,,,,,2.358332,48.867808
459,2019-1504153,2019-07-19,1,Vente,475000.0,6.0,,RUE BAILLEUL,0632,75001.0,75101,Paris 1er Arrondissement,75,,,75101000AT0171,,,22,34.72,,,,,,,,,1,2.0,Appartement,37.0,2.0,,,,,,2.342036,48.861112
460,2019-1504155,2019-08-07,1,Vente,331911.0,49.0,,RUE DE L ARBRE SEC,0407,75001.0,75101,Paris 1er Arrondissement,75,,,75101000AT0127,,,29,21.74,,,,,,,,,1,2.0,Appartement,25.0,1.0,,,,,,2.342239,48.861296
461,2019-1504156,2019-08-02,1,Vente,705700.0,272.0,,RUE SAINT HONORE,8635,75001.0,75101,Paris 1er Arrondissement,75,,,75101000AX0018,,,8,49.19,,,,,,,,,1,2.0,Appartement,40.0,2.0,,,,,,2.333358,48.864474
462,2019-1504164,2019-07-11,1,Vente,1082.0,12.0,,RUE DES PYRAMIDES,7902,75001.0,75101,Paris 1er Arrondissement,75,,,75101000AX0033,,,44,,,,,,,,,,1,2.0,Appartement,50.0,2.0,,,,,,2.333307,48.864935
463,2019-1504166,2019-08-07,1,Vente,775000.0,39.0,,RUE VOLTA,9905,75003.0,75103,Paris 3e Arrondissement,75,,,75103000AC0011,,,61,72.98,,,,,,,,,1,2.0,Appartement,70.0,2.0,,,,,,2.357717,48.866486
464,2019-1504168,2019-07-22,1,Vente,1165450.0,235.0,,RUE DU FAUBOURG SAINT HONORE,3518,75008.0,75108,Paris 8e Arrondissement,75,,,75108000AX0006,,,6,90.17,,,,,,,,,1,2.0,Appartement,82.0,3.0,,,,,,2.298479,48.877229
465,2019-1504173,2019-07-24,1,Vente,2307692.2,3.0,,AV DE MESSINE,6296,75008.0,75108,Paris 8e Arrondissement,75,,,75108000CI0086,,,5,219.03,,,,,,,,,1,2.0,Appartement,216.0,6.0,,,,,,2.313864,48.875685
466,2019-1504174,2019-07-29,1,Vente,2330000.0,35.0,,RUE DE POITOU,7572,75003.0,75103,Paris 3e Arrondissement,75,,,75103000AQ0033,,,5,30.97,,,,,,,,,1,2.0,Appartement,31.0,2.0,,,,,,2.361872,48.861609
467,2019-1504179,2019-08-07,1,Vente,110000.0,5.0,,RUE DARU,2576,75008.0,75108,Paris 8e Arrondissement,75,,,75108000AY0023,,,345,10.2,,,,,,,,,1,2.0,Appartement,6.0,1.0,,,,,,2.300788,48.877735
468,2019-1504183,2019-07-31,1,Vente,370000.0,20.0,,RUE RAMBUTEAU,8009,75003.0,75103,Paris 3e Arrondissement,75,,,75103000AT0027,,,61,,,,,,,,,,1,2.0,Appartement,6.0,1.0,,,,,,2.35474,48.861073
469,2019-1504188,2019-07-30,1,Vente,453654.0,22.0,,AV DE L OPERA,6904,75001.0,75101,Paris 1er Arrondissement,75,,,75101000AW0083,,,66,,,,,,,,,,1,2.0,Appartement,44.0,1.0,,,,,,2.334923,48.866197
470,2019-1504191,2019-08-02,1,Vente,229630.0,25.0,,RUE DES LAVANDIERES STE OPPORT,5409,75001.0,75101,Paris 1er Arrondissement,75,,,75101000AO0154,,,9,15.02,,,,,,,,,1,2.0,Appartement,15.0,1.0,,,,,,2.346493,48.859399
471,2019-1504202,2019-07-30,1,Vente,448000.0,6.0,,RUE GREFFULHE,4304,75008.0,75108,Paris 8e Arrondissement,75,,,75108000BS0079,,,31,,,,,,,,,,1,2.0,Appartement,124.0,5.0,,,,,,2.325532,48.87268
472,2019-1504206,2019-08-23,1,Vente,592330.0,7.0,,RUE SAINTE APOLLINE,8538,75003.0,75103,Paris 3e Arrondissement,75,,,75103000AB0132,,,16,50.62,,,,,,,,,1,2.0,Appartement,50.0,3.0,,,,,,2.354382,48.868728
473,2019-1504208,2019-08-02,1,Vente,781800.0,43.0,,RUE DE POITOU,7572,75003.0,75103,Paris 3e Arrondissement,75,,,75103000AQ0029,,,4,56.39,,,,,,,,,1,2.0,Appartement,58.0,3.0,,,,,,2.361424,48.861625
474,2019-1504209,2019-07-30,1,Vente,1820000.0,29.0,,RUE BOISSY D ANGLAS,1081,75008.0,75108,Paris 8e Arrondissement,75,,,75108000BR0047,,,62,,,,,,,,,,1,2.0,Appartement,30.0,1.0,,,,,,2.322001,48.869528
475,2019-1504211,2019-08-09,1,Vente,1000000.0,4.0,,PAS SAINTE AVOIE,8540,75003.0,75103,Paris 3e Arrondissement,75,,,75103000AT0059,,,4,97.12,,,,,,,,,1,2.0,Appartement,120.0,4.0,,,,,,2.356362,48.860725
476,2019-1504215,2019-07-30,1,Vente,483500.0,40.0,,RUE DE LIEGE,5665,75008.0,75108,Paris 8e Arrondissement,75,,,75108000BZ0065,,,291,54.95,,,,,,,,,1,2.0,Appartement,54.0,1.0,,,,,,2.324251,48.87945
477,2019-1504219,2019-08-06,1,Vente,1100000.0,118.0,,RUE LA BOETIE,5194,75008.0,75108,Paris 8e Arrondissement,75,,,75108000BG0027,,,21,100.6,,,,,,,,,1,2.0,Appartement,85.0,4.0,,,,,,2.306906,48.871371
478,2019-1504223,2019-08-08,1,Vente,1215000.0,9.0,,RUE PIERRE LE GRAND,7447,75008.0,75108,Paris 8e Arrondissement,75,,,75108000AY0022,,,456,98.04,,,,,,,,,1,2.0,Appartement,97.0,3.0,,,,,,2.301014,48.878069
479,2019-1504224,2019-08-23,1,Vente,2370000.0,19.0,,PL DE LA MADELEINE,5891,75008.0,75108,Paris 8e Arrondissement,75,,,75108000BR0077,,,13,180.09,,,,,,,,,1,2.0,Appartement,176.0,6.0,,,,,,2.323772,48.870824
480,2019-1504225,2019-07-31,1,Vente,411000.0,3.0,,RUE DE L ISLY,4748,75008.0,75108,Paris 8e Arrondissement,75,,,75108000BU0047,,,138,31.81,,,,,,,,,1,2.0,Appartement,31.0,1.0,,,,,,2.32618,48.874609
481,2019-1504227,2019-08-02,1,Vente,650000.0,76.0,,RUE DU VERTBOIS,9711,75003.0,75103,Paris 3e Arrondissement,75,,,75103000AB0146,,,128,49.89,,,,,,,,,1,2.0,Appartement,52.0,2.0,,,,,,2.355225,48.86775
482,2019-1504228,2019-08-29,1,Vente,285800.0,8.0,,RUE PORTEFOIN,7729,75003.0,75103,Paris 3e Arrondissement,75,,,75103000AI0016,,,2003,22.13,,,,,,,,,1,2.0,Appartement,22.0,1.0,,,,,,2.360149,48.863775
483,2019-1504230,2019-08-20,1,Vente,1316950.0,38.0,,RUE DE TURBIGO,9504,75003.0,75103,Paris 3e Arrondissement,75,,,75103000AD0053,,,12,94.57,,,,,,,,,1,2.0,Appartement,90.0,3.0,,,,,,2.353879,48.864805
484,2019-1504234,2019-08-05,1,Vente,80000.0,5.0,,RUE COMMINES,2249,75003.0,75103,Paris 3e Arrondissement,75,,,75103000AK0015,,,32,14.39,,,,,,,,,1,2.0,Appartement,12.0,1.0,,,,,,2.365326,48.861936
485,2019-1504235,2019-08-07,1,Vente,310000.0,11.0,,RUE ARSENE HOUSSAYE,0473,75008.0,75108,Paris 8e Arrondissement,75,,,75108000AV0014,,,12,24.51,,,,,,,,,1,2.0,Appartement,27.0,1.0,,,,,,2.299088,48.874682
486,2019-1504236,2019-08-20,1,Vente,467200.0,6.0,,RUE ROBERT ESTIENNE,8256,75008.0,75108,Paris 8e Arrondissement,75,,,75108000AQ0012,,,70,29.88,,,,,,,,,1,2.0,Appartement,35.0,2.0,,,,,,2.304843,48.868577
487,2019-1504237,2019-08-08,1,Vente,345000.0,123.0,,RUE SAINT HONORE,8635,75001.0,75101,Paris 1er Arrondissement,75,,,75101000AT0169,,,206,39.26,,,,,,,,,1,2.0,Appartement,38.0,2.0,,,,,,2.341817,48.861395
488,2019-1504239,2019-08-07,1,Vente,150000.0,50.0,,RUE DU VERTBOIS,9711,75003.0,75103,Paris 3e Arrondissement,75,,,75103000AB0080,,,11,14.8,,,,,,,,,1,2.0,Appartement,14.0,1.0,,,,,,2.357106,48.867353
489,2019-1504240,2019-08-27,1,Vente,525000.0,2.0,,RUE SAINTE OPPORTUNE,8590,75001.0,75101,Paris 1er Arrondissement,75,,,75101000AO0057,,,4,39.58,,,,,,,,,1,2.0,Appartement,35.0,2.0,,,,,,2.347351,48.859765
490,2019-1504242,2019-08-06,1,Vente,2460750.0,7.0,,AV DE FRIEDLAND,3868,75008.0,75108,Paris 8e Arrondissement,75,,,75108000AU0057,,,9,258.57,,,,,,,,,1,2.0,Appartement,263.0,8.0,,,,,,2.303939,48.874345
491,2019-1504243,2019-08-30,1,Vente,940000.0,1.0,,RUE BAILLY,0636,75003.0,75103,Paris 3e Arrondissement,75,,,75103000AE0163,,,42,58.84,,,,,,,,,1,2.0,Appartement,50.0,2.0,,,,,,2.356657,48.865184
492,2019-1504246,2019-09-04,1,Vente,11750.0,53.0,,RUE FRANCOIS 1ER,3814,75008.0,75108,Paris 8e Arrondissement,75,,,75108000AP0020,,,231,,,,,,,,,,1,2.0,Appartement,90.0,2.0,,,,,,2.301629,48.869515
493,2019-1504248,2019-08-27,1,Vente,420000.0,198.0,,RUE SAINT HONORE,8635,75001.0,75101,Paris 1er Arrondissement,75,,,75101000AU0004,,,22,36.48,,,,,,,,,1,2.0,Appartement,39.0,2.0,,,,,,2.337942,48.862813
494,2019-1504250,2019-08-26,1,Vente,359000.0,31.0,,RUE NOTRE DAME DE NAZARETH,6834,75003.0,75103,Paris 3e Arrondissement,75,,,75103000AF0071,,,9,26.9,,,,,,,,,1,2.0,Appartement,36.0,2.0,,,,,,2.35861,48.867275
495,2019-1504251,2019-08-14,1,Vente,230000.0,90.0,,RUE DES ARCHIVES,0420,75003.0,75103,Paris 3e Arrondissement,75,,,75103000AI0068,,,70,15.73,,,,,,,,,1,2.0,Appartement,25.0,1.0,,,,,,2.360929,48.863161
496,2019-1504257,2019-08-07,1,Vente,240000.0,198.0,,RUE DE RIVOLI,8249,75001.0,75101,Paris 1er Arrondissement,75,,,75101000AY0089,,,15,29.2,,,,,,,,,1,2.0,Appartement,32.0,1.0,,,,,,2.331143,48.864324
497,2019-1504258,2019-08-28,1,Vente,530000.0,62.0,,RUE DE MONCEAU,6419,75008.0,75108,Paris 8e Arrondissement,75,,,75108000CH0021,,,28,,,,,,,,,,1,2.0,Appartement,8.0,1.0,,,,,,2.313024,48.878442
498,2019-1504262,2019-08-08,1,Vente,201500.0,37.0,,RUE SAINTE ANNE,8534,75001.0,75101,Paris 1er Arrondissement,75,,,75101000AW0022,,,210,13.08,,,,,,,,,1,2.0,Appartement,13.0,1.0,,,,,,2.335429,48.866466
